~VERSION INFORMATION
 VERS.                 2.0:   CWLS LOG ASCII STANDARD -VERSION 2.0
 WRAP.                  NO:   ONE LINE PER DEPTH STEP
~WELL INFORMATION BLOCK
#MNEM.UNIT           DATA                    DESCRIPTION OF MNEMONIC
#---------    -------------------            -------------------------------
# Generated from Intellog Unique Number	CN_94_101/WELL/1077
WELL.         SYNCRUDE CANADA LTD.           : Well_name    - WELL
LOC .         AB/12-06-094-11W4/0            : Location     - LOCATION
UWI .         AB/12-06-094-11W400            : Uwi          - UNIQUE WELL ID
ENTR.         JOETTE                         : Entered      - ENTERED BY
SRVC.         SCHLUMBERGER                   : Scn          - SERVICE COMPANY
DATE.         03/16/92                       : Date         - LOG DATE
STRT.M        22                             : top_depth    - START DEPTH
STOP.M        92                             : bot_depth    - STOP DEPTH
STEP.M        0.25                           : increment    - STEP LENGTH
 NULL. -999.2500:NULL Value
~CURVE INFORMATION BLOCK
#MNEM UNIT       ERCB CURVE CODE    CURVE DESCRIPTION
#-----------   ------------------   ----------------------------------
DEPT.M        00 001 00 00         : DEPTH        - DEPTH
ILD .OHMM     00 120 00 00         : RESD         - DEEP RESISTIVITY (DIL)
DPHI.V/V      00 890 00 00         : PHID         - DENSITY POROSITY (SANDSTONE)
NPHI.V/V      00 330 00 00         : PHIN         - NEUTRON POROSITY (SANDSTONE)
GR  .API      00 310 00 00         : GR           - GAMMA RAY
~PARAMETER INFORMATION
#MNEM.UNIT           DATA             DESCRIPTION OF MNEMONIC
#---------         -----------     ------------------------------
GL  .M        327.6                : gl           - GROUND LEVEL ELEVATION
EREF.M        327.6                : kb           - ELEVATION OF DEPTH REFERENCE
DATM.M        327.6                : datum        - DATUM ELEVATION
TDD .M        95.5                 : tdd          - TOTAL DEPTH DRILLER
RUN .         ONE                  : Run          - RUN NUMBER
ENG .         BILL                 : Engineer     - RECORDING ENGINEER
WIT .         JIM                  : Witness      - WITNESSED BY
MUD .         GEL                  : Mud_type     - MUD TYPE
MATR.         SANDSTONE            : Logunit      - NEUTRON MATRIX
TMAX.C        5                    : BHT          - MAXIMUM RECORDED TEMPERATURE
BHTD.M        95.5                 : BHTDEP       - MAXIMUM RECORDED TEMPERATURE
RMT .C        40                   : MDTP         - TEMPERATURE OF MUD
MUDD.KG/M     1030                 : MWT          - MUD DENSITY
NEUT.         1                    : NEUTRON      - NEUTRON TYPE
RESI.         0                    : RESIST       - RESISTIVITY TYPE
RM  .OHMM     3.6                  : RM           - RESISTIVITY OF MUD
RMC .OHMM     3.6                  : RMC          - RESISTIVITY OF MUD CAKE
RMF .OHMM     3.6                  : RMF          - RESISTIVITY OF MUD FILTRATE
SUFT.C        4                    : SUFT         - SURFACE TEMPERATURE
~A  DEPTH     RESD     PHID     PHIN       GR
   22.000    3.522    0.298    0.610  109.151
   22.250    3.597    0.300    0.695  115.167
   22.500    3.858    0.308    0.587  114.853
   22.750    4.167    0.318    0.604  122.381
   23.000    4.407    0.306    0.633  130.205
   23.250    4.023    0.312    0.610  119.642
   23.500    4.108    0.314    0.629  123.547
   23.750    3.777    0.303    0.648  129.266
   24.000    3.147    0.300    0.618  123.826
   24.250    3.192    0.240    0.692  138.588
   24.500    5.709    0.183    0.587  122.292
   24.750    4.758    0.259    0.580  102.984
   25.000    4.021    0.248    0.609  122.268
   25.250    4.283    0.213    0.577  121.654
   25.500    5.359    0.241    0.613  124.355
   25.750    5.953    0.218    0.593  131.277
   26.000    5.511    0.209    0.623  136.993
   26.250    5.747    0.199    0.574  123.111
   26.500    5.283    0.201    0.564  129.128
   26.750    5.246    0.187    0.558  135.147
   27.000    5.993    0.183    0.534  130.913
   27.250    6.163    0.205    0.506  130.899
   27.500    6.034    0.192    0.510  127.571
   27.750    6.337    0.201    0.470  124.545
   28.000    7.550    0.138    0.416  106.138
   28.250    7.874    0.166    0.471  114.267
   28.500    6.381    0.182    0.541  124.507
   28.750    6.075    0.203    0.516  136.556
   29.000    6.032    0.208    0.533  145.891
   29.250    6.160    0.129    0.457  119.947
   29.500    8.806    0.119    0.431  113.904
   29.750    6.653    0.186    0.444  113.590
   30.000    6.031    0.201    0.497  111.467
   30.250    5.623    0.196    0.544  126.832
   30.500    5.133    0.179    0.605  110.839
   30.750    5.169    0.205    0.620  117.761
   31.000    4.853    0.204    0.554  120.160
   31.250    4.653    0.218    0.555  114.722
   31.500    4.492    0.188    0.539  126.165
   31.750    4.588    0.218    0.506  150.578
   32.000    5.582    0.198    0.512  146.646
   32.250    4.989    0.201    0.520  145.426
   32.500    5.351    0.201    0.520  131.545
   32.750    5.059    0.169    0.573  150.830
   33.000    4.954    0.203    0.560  146.295
   33.250    4.618    0.243    0.514  130.301
   33.500    4.216    0.214    0.526  125.163
   33.750    4.305    0.192    0.520  119.422
   34.000    4.522    0.211    0.571  124.534
   34.250    4.617    0.183    0.516  140.203
   34.500    5.201    0.199    0.512  126.923
   34.750    5.022    0.210    0.537  126.609
   35.000    4.489    0.187    0.533  115.139
   35.250    4.395    0.183    0.517  124.473
   35.500    4.649    0.190    0.574  117.526
   35.750    5.577    0.132    0.550  125.354
   36.000    6.506    0.166    0.525  125.341
   36.250    5.538    0.196    0.553  117.187
   36.500    4.243    0.208    0.563  145.517
   36.750    3.536    0.237    0.622  143.094
   37.000    3.095    0.250    0.649  133.131
   37.250    3.274    0.217    0.638  118.344
   37.500    3.955    0.190    0.579  127.377
   37.750    4.067    0.217    0.455  119.826
   38.000    4.949    0.199    0.458  117.402
   38.250    3.899    0.234    0.497  115.580
   38.500    3.765    0.213    0.540  122.502
   38.750    3.635    0.203    0.526  120.983
   39.000    3.610    0.206    0.610  129.715
   39.250    4.182    0.148    0.549  129.099
   39.500    5.936    0.177    0.648   94.713
   39.750    4.645    0.233    0.695  105.554
   40.000    3.072    0.270    0.682  110.067
   40.250    2.489    0.311    0.744   89.852
   40.500    2.164    0.323    0.761   95.568
   40.750    2.257    0.304    0.756   98.873
   41.000    2.321    0.318    0.724   91.020
   41.250    2.353    0.327    0.643   88.293
   41.500    2.596    0.272    0.610   84.362
   41.750    3.294    0.206    0.553   98.219
   42.000    3.582    0.191    0.489  104.539
   42.250    4.358    0.181    0.534  105.130
   42.500    3.979    0.211    0.564  115.671
   42.750    3.363    0.235    0.555  112.945
   43.000    3.386    0.215    0.504  115.042
   43.250    4.091    0.208    0.545   96.035
   43.500    4.544    0.128    0.437   98.434
   43.750    4.977    0.129    0.590   95.105
   44.000    6.405    0.236    0.644  123.738
   44.250    3.246    0.241    0.576  130.057
   44.500    3.112    0.251    0.599  116.476
   44.750    2.802    0.256    0.644  120.985
   45.000    2.881    0.227    0.597  109.515
   45.250    3.026    0.244    0.571  111.012
   45.500    3.090    0.238    0.596  117.030
   45.750    3.133    0.207    0.513  114.303
   46.000    3.361    0.229    0.509  120.020
   46.250    3.337    0.245    0.518  128.149
   46.500    3.733    0.225    0.545  123.011
   46.750    3.384    0.229    0.635  130.838
   47.000    3.177    0.192    0.570  125.096
   47.250    3.865    0.156    0.538  109.103
   47.500    5.642    0.208    0.529  104.266
   47.750    3.504    0.222    0.529  128.075
   48.000    3.088    0.202    0.506  143.138
   48.250    3.336    0.197    0.536  126.542
   48.500    3.266    0.213    0.560  124.117
   48.750    3.577    0.141    0.511  137.069
   49.000    4.030    0.163    0.530  131.631
   49.250    5.523    0.101    0.494  118.653
   49.500    5.600    0.108    0.499  100.549
   49.750    7.057    0.141    0.447   84.255
   50.000    6.442    0.179    0.450   79.116
   50.250    7.206    0.191    0.426   80.611
   50.500    5.922    0.164    0.465   92.056
   50.750    5.521    0.218    0.570  107.119
   51.000    9.272    0.267    0.481   66.703
   51.250    7.567    0.292    0.449   36.839
   51.500    6.908    0.261    0.473   38.033
   51.750    8.115    0.262    0.448   44.354
   52.000   10.370    0.248    0.445   42.833
   52.250   11.044    0.278    0.440   47.947
   52.500   11.043    0.267    0.400   55.171
   52.750    9.941    0.241    0.391   60.285
   53.000    9.598    0.217    0.415   61.780
   53.250   10.812    0.213    0.370   60.863
   53.500   14.309    0.253    0.401   47.885
   53.750   12.525    0.250    0.395   40.335
   54.000   15.453    0.253    0.415   43.639
   54.250   11.924    0.251    0.442   46.341
   54.500    9.200    0.247    0.473   50.550
   54.750   13.244    0.268    0.468   49.029
   55.000   25.055    0.221    0.436   53.841
   55.250   15.558    0.156    0.429   50.512
   55.500    8.576    0.252    0.430   46.881
   55.750   10.731    0.255    0.401   39.332
   56.000   10.146    0.227    0.413   42.936
   56.250    9.525    0.252    0.418   48.955
   56.500   11.835    0.244    0.444   49.847
   56.750   19.057    0.235    0.384   38.979
   57.000   18.400    0.241    0.376   30.524
   57.250   19.735    0.260    0.348   35.036
   57.500   15.227    0.225    0.368   21.153
   57.750   11.345    0.225    0.395   27.470
   58.000    9.455    0.234    0.366   41.028
   58.250   11.914    0.171    0.324   37.397
   58.500   23.506    0.168    0.334   39.195
   58.750    7.555    0.242    0.362   39.785
   59.000    7.193    0.238    0.409   47.611
   59.250    6.896    0.239    0.401   47.900
   59.500    7.092    0.252    0.419   51.206
   59.750    6.208    0.240    0.444   45.766
   60.000    6.036    0.218    0.389   53.292
   60.250    6.847    0.235    0.423   63.531
   60.500    6.078    0.239    0.406   60.201
   60.750    6.250    0.215    0.453   61.396
   61.000    6.564    0.212    0.455   65.000
   61.250    6.250    0.245    0.444   59.560
   61.500    6.206    0.226    0.424   56.232
   61.750    5.908    0.238    0.405   52.601
   62.000    5.625    0.236    0.412   57.716
   62.250    4.993    0.229    0.466   54.385
   62.500    5.825    0.225    0.454   57.992
   62.750    5.281    0.250    0.490   57.978
   63.000    6.940    0.274    0.430   57.364
   63.250    9.379    0.267    0.472   59.463
   63.500   13.691    0.242    0.431   52.816
   63.750   15.422    0.213    0.366   52.503
   64.000   15.860    0.210    0.396   33.494
   64.250   26.822    0.259    0.461   37.099
   64.500   21.889    0.261    0.487   35.880
   64.750   17.863    0.259    0.455   41.899
   65.000   11.897    0.266    0.546   53.044
   65.250    4.818    0.238    0.487   75.343
