~VERSION INFORMATION
 VERS.                 2.0:   CWLS LOG ASCII STANDARD -VERSION 2.0
 WRAP.                  NO:   ONE LINE PER DEPTH STEP
~WELL INFORMATION BLOCK
#MNEM.UNIT           DATA                    DESCRIPTION OF MNEMONIC
#---------    -------------------            -------------------------------
# Generated from Intellog Unique Number	CX_WELLS/WELL/1166
WELL.         10-08-089-08W4                 : Well_name    - WELL
LOC .         AB/10-08-089-08W4/0            : Location     - LOCATION
UWI .         AB/10-08-089-08W400            : Uwi          - UNIQUE WELL ID
ENTR.         JHS                            : Entered      - ENTERED BY
SRVC.         SCHLUMBERGER                   : Scn          - SERVICE COMPANY
STRT.F        100                            : top_depth    - START DEPTH
STOP.F        500.262                        : bot_depth    - STOP DEPTH
STEP.F        0.82                           : increment    - STEP LENGTH
 NULL. -999.2500:NULL Value
~CURVE INFORMATION BLOCK
#MNEM UNIT       ERCB CURVE CODE    CURVE DESCRIPTION
#-----------   ------------------   ----------------------------------
DEPT.F        00 001 00 00         : DEPTH        - DEPTH
GR  .API      00 310 00 00         : GR           - GAMMA RAY
DPHI.V/V      00 890 00 00         : PHID         - DENSITY POROSITY (SANDSTONE)
ILD .OHMM     00 120 00 00         : RESD         - DEEP RESISTIVITY (DIL)
~PARAMETER INFORMATION
#MNEM.UNIT           DATA             DESCRIPTION OF MNEMONIC
#---------         -----------     ------------------------------
GL  .M        385.359              : gl           - GROUND LEVEL ELEVATION
EREF.M        386.578              : kb           - ELEVATION OF DEPTH REFERENCE
DATM.M        386.578              : datum        - DATUM ELEVATION
TDD .M        156.667              : tdd          - TOTAL DEPTH DRILLER
RUN .         ONE                  : Run          - RUN NUMBER
ENG .         BILL                 : Engineer     - RECORDING ENGINEER
WIT .         JIM                  : Witness      - WITNESSED BY
MUD .         GEL                  : Mud_type     - MUD TYPE
MATR.         SANDSTONE            : Logunit      - NEUTRON MATRIX
TMAX.C        60                   : BHT          - MAXIMUM RECORDED TEMPERATURE
BHTD.M        156.667              : BHTDEP       - MAXIMUM RECORDED TEMPERATURE
MATR.         1                    : LOGUNIT      - NEUTRON MATRIX
RMT .C        25                   : MDTP         - TEMPERATURE OF MUD
NEUT.         1                    : NEUTRON      - NEUTRON TYPE
RESI.         0                    : RESIST       - RESISTIVITY TYPE
RMC .OHMM     0.25                 : RMC          - RESISTIVITY OF MUD CAKE
RMF .OHMM     0.25                 : RMF          - RESISTIVITY OF MUD FILTRATE
SUFT.C        15                   : SUFT         - SURFACE TEMPERATURE
~A  DEPTH       GR     PHID     RESD
  100.000   47.633    0.146  102.737
  100.820   51.919    0.126  121.066
  101.640   54.263    0.077   90.581
  102.461   58.931    0.054   74.226
  103.281   63.216    0.123  116.937
  104.101   62.850    0.223  159.372
  104.921   60.936    0.289  117.080
  105.741   62.506    0.296   86.034
  106.562   65.237    0.298   92.555
  107.382   65.657    0.320   66.779
  108.202   65.291    0.335   49.065
  109.022   68.409    0.339   39.477
  109.843   70.361    0.335   34.782
  110.663   73.878    0.313   30.646
  111.483   76.604    0.307   28.004
  112.303   77.018    0.303   27.020
  113.123   75.873    0.302   25.604
  113.944   78.609    0.311   26.091
  114.764   81.341    0.322   27.064
  115.584   80.975    0.328   29.123
  116.404   79.453    0.322   33.090
  117.224   79.474    0.309   37.597
  118.045   81.044    0.308   44.298
  118.865   81.071    0.306   51.254
  119.685   78.764    0.307   66.140
  120.505   74.913    0.313   88.495
  121.325   71.063    0.314  118.422
  122.146   69.148    0.312   97.014
  122.966   67.626    0.308   59.439
  123.786   66.099    0.302   42.120
  124.606   66.900    0.289   37.116
  125.427   68.852    0.270   30.963
  126.247   73.912    0.196   22.340
  127.067   80.128    0.157   18.307
  127.887   81.311    0.177   17.033
  128.707   83.661    0.240   16.432
  129.528   86.010    0.280   14.478
  130.348   87.962    0.289   12.530
  131.168   86.048    0.293   12.089
  131.988   83.746    0.298   11.877
  132.808   84.547    0.304   11.886
  133.629   86.504    0.310   12.107
  134.449   89.241    0.316   13.511
  135.269   90.806    0.318   16.811
  136.089   95.484    0.319   21.299
  136.909   96.274    0.318   26.024
  137.730   94.365    0.314   30.115
  138.550   92.450    0.313   33.601
  139.370   90.531    0.308   30.705
  140.190   87.073    0.304   31.284
  141.010   83.996    0.292   34.277
  141.831   80.926    0.281   38.946
  142.651   82.490    0.275   42.672
  143.471   84.840    0.274   45.086
  144.291   85.636    0.269   36.276
  145.112   86.431    0.264   31.395
  145.932   87.620    0.267   35.024
  146.752   88.802    0.275   42.794
  147.572   90.378    0.282   52.287
  148.392   91.561    0.275   57.289
  149.213   92.744    0.256   58.379
  150.033   94.314    0.244   58.410
  150.853   93.948    0.240   55.343
  151.673   92.808    0.239   49.655
  152.493   92.442    0.239   48.788
  153.314   91.302    0.236   52.493
  154.134   85.515    0.233   62.991
  154.954   73.921    0.225   99.251
  155.774   72.012    0.194   37.920
  156.594   73.577    0.166   26.387
  157.415   77.088    0.154   29.985
  158.235   77.884    0.163   32.254
  159.055   77.518    0.242   31.128
  159.875   77.926    0.273   28.962
  160.696   80.276    0.283   27.445
  161.516   81.072    0.294   26.473
  162.336   82.254    0.290   25.083
  163.156   85.760    0.276   24.645
  163.976   90.815    0.270   26.523
  164.797   94.326    0.271   29.057
  165.617   93.960    0.271   38.878
  166.437   91.659    0.264   52.019
  167.257   87.426    0.255   53.015
  168.077   84.350    0.254   51.152
  168.898   81.656    0.250   47.593
  169.718   82.070    0.243   42.696
  170.538   85.194    0.245   34.987
  171.358   89.469    0.248   32.553
  172.178   92.211    0.252   30.288
  172.999   90.291    0.255   28.180
  173.819   87.215    0.258   27.190
  174.639   85.688    0.265   28.732
  175.459   86.107    0.270   29.807
  176.280   86.892    0.272   29.287
  177.100   90.790    0.273   22.726
  177.920   91.210    0.272   23.583
  178.740   91.225    0.258   27.782
  179.560   90.860    0.262   33.343
  180.381   91.273    0.267   28.322
  181.201   91.682    0.269   15.846
  182.021   91.316    0.272   11.227
  182.841   90.176    0.279    9.369
  183.661   85.546    0.289    7.817
  184.482   83.244    0.298   15.316
  185.302   85.986    0.306   23.272
  186.122   86.777    0.308   32.294
  186.942   87.185    0.302   40.923
  187.762   88.373    0.289   47.349
  188.583   88.395    0.278   44.856
  189.403   84.931    0.262   36.757
  190.223   81.861    0.245   32.984
  191.043   81.882    0.242   34.223
  191.864   80.747    0.249   35.508
  192.684   80.371    0.262   36.174
  193.504   78.074    0.271   35.542
  194.324   77.708    0.275   35.566
  195.144   78.504    0.274   36.243
  195.965   78.531    0.272   38.288
  196.785   79.326    0.269   44.300
  197.605   80.509    0.267   59.282
  198.425   80.923    0.263  108.015
  199.245   78.234    0.252   68.628
  200.066   75.927    0.238   13.148
  200.886   70.141    0.210    8.983
  201.706   67.452    0.156    6.482
  202.526   71.345    0.152    6.369
  203.346   72.920    0.202    6.979
  204.167   72.942    0.239    7.929
  204.987   71.414    0.260    9.342
  205.807   69.505    0.335   11.837
  206.627   71.457    0.334   20.424
  207.448   76.129    0.323   20.810
  208.268   77.318    0.303   16.444
  209.088   75.790    0.285   19.730
  209.908   73.489    0.283   24.549
  210.728   71.956    0.283   27.892
  211.549   71.590    0.283   31.125
  212.369   71.235    0.283   39.437
  213.189   70.477    0.289   43.215
  214.009   72.046    0.293   38.071
  214.829   76.714    0.296   32.347
  215.650   77.133    0.291   23.338
  216.470   78.698    0.274   16.238
  217.290   83.365    0.260   15.669
  218.110   88.425    0.243   15.967
  218.930   87.285    0.231   15.974
  219.751   84.983    0.272   15.695
  220.571   81.525    0.287   15.421
  221.391   79.611    0.285   14.613
  222.211   80.788    0.286   12.875
  223.031   80.428    0.291   12.199
  223.852   79.675    0.304   12.431
  224.672   80.470    0.312   12.212
  225.492   81.266    0.305   14.130
  226.312   81.680    0.299   16.353
  227.133   81.701    0.297   15.778
  227.953   81.728    0.295   14.157
  228.773   81.749    0.295   13.909
  229.593   80.604    0.295   14.966
  230.413   78.689    0.295   17.004
  231.234   76.000    0.291   22.342
  232.054   72.542    0.289   39.261
  232.874   69.853    0.280   50.657
  233.694   65.616    0.270   75.584
  234.514   61.765    0.260  114.843
  235.335   57.915    0.245  137.830
  236.155   56.388    0.217  119.237
  236.975   61.055    0.197   73.056
  237.795   62.243    0.184   49.016
  238.615   62.270    0.260   50.857
  239.436   62.678    0.301   49.969
  240.256   63.474    0.316   40.941
  241.076   65.436    0.332   34.785
  241.896   67.007    0.342   35.452
  242.717   68.958    0.344   41.771
  243.537   71.701    0.328   51.972
  244.357   71.722    0.310   57.980
  245.177   71.738    0.299   45.810
  245.997   72.921    0.312   28.068
  246.818   77.981    0.330   36.883
  247.638   84.197    0.336   54.042
  248.458   89.251    0.312   72.307
  249.278   90.440    0.299  713.688
  250.098   72.646    0.288  796.299
  250.919   62.600    0.300  640.690
  251.739   57.975    0.309  768.724
  252.559   50.253    0.322  956.467
  253.379   42.144    0.332 1453.460
  254.199   36.745    0.338 1480.910
  255.020   33.669    0.340  654.296
  255.840   37.949    0.329   30.950
  256.660   50.752    0.315   33.910
  257.480   59.679    0.302   51.524
  258.301   63.577    0.281   67.707
  259.121   63.599    0.272   84.243
  259.941   62.077    0.270  255.292
  260.761   65.964    0.276  599.846
  261.581   73.734    0.285  360.905
  262.402   84.210    0.300  242.146
  263.222   73.003    0.313  354.794
  264.042   64.506    0.324  280.361
  264.862   59.887    0.332  229.740
  265.682   62.226    0.323  291.049
  266.503   64.963    0.308  426.446
  267.323   64.210    0.302  404.049
  268.143   61.521    0.292  247.557
  268.963   59.219    0.297  308.059
  269.783   57.692    0.310  571.590
  270.604   59.654    0.315 1060.700
  271.424   59.675    0.309 1445.230
  272.244   60.471    0.303 1831.160
  273.064   62.816    0.326 1934.760
  273.885   62.068    0.330 1346.320
  274.705   59.766    0.330  855.397
  275.525   55.534    0.324  406.358
  276.345   55.550    0.314  215.299
  277.165   55.184    0.305  186.306
