~VERSION INFORMATION
 VERS.                 2.0:   CWLS LOG ASCII STANDARD -VERSION 2.0
 WRAP.                  NO:   ONE LINE PER DEPTH STEP
~WELL INFORMATION BLOCK
#MNEM.UNIT           DATA                    DESCRIPTION OF MNEMONIC
#---------    -------------------            -------------------------------
# Generated from Intellog Unique Number	CN_94_101/WELL/3339
WELL.         10-13-095-09W4                 : Well_name    - WELL
LOC .         AB/10-13-095-09W4/0            : Location     - LOCATION
UWI .         AB/10-13-095-09W400            : Uwi          - UNIQUE WELL ID
ENTR.         T                              : Entered      - ENTERED BY
SRVC.         SCHLUMBERGER                   : Scn          - SERVICE COMPANY
DATE.         04/10/92                       : Date         - LOG DATE
STRT.M        10                             : top_depth    - START DEPTH
STOP.M        110                            : bot_depth    - STOP DEPTH
STEP.M        0.25                           : increment    - STEP LENGTH
 NULL. -999.2500:NULL Value
~CURVE INFORMATION BLOCK
#MNEM UNIT       ERCB CURVE CODE    CURVE DESCRIPTION
#-----------   ------------------   ----------------------------------
DEPT.M        00 001 00 00         : DEPTH        - DEPTH
GR  .API      00 310 00 00         : GR           - GAMMA RAY
NPHI.V/V      00 330 00 00         : PHIN         - NEUTRON POROSITY (SANDSTONE)
RHOB.KG/M3    00 350 00 00         : DENS         - BULK DENSITY
ILD .OHMM     00 120 00 00         : RESD         - DEEP RESISTIVITY (DIL)
~PARAMETER INFORMATION
#MNEM.UNIT           DATA             DESCRIPTION OF MNEMONIC
#---------         -----------     ------------------------------
GL  .M        322                  : gl           - GROUND LEVEL ELEVATION
EREF.M        322                  : kb           - ELEVATION OF DEPTH REFERENCE
DATM.M        322                  : datum        - DATUM ELEVATION
TDD .M        114                  : tdd          - TOTAL DEPTH DRILLER
RUN .         ONE                  : Run          - RUN NUMBER
ENG .         BILL                 : Engineer     - RECORDING ENGINEER
WIT .         JIM                  : Witness      - WITNESSED BY
MUD .         GEL                  : Mud_type     - MUD TYPE
MATR.         SANDSTONE            : Logunit      - NEUTRON MATRIX
TMAX.C        8                    : BHT          - MAXIMUM RECORDED TEMPERATURE
BHTD.M        114                  : BHTDEP       - MAXIMUM RECORDED TEMPERATURE
RMT .C        8                    : MDTP         - TEMPERATURE OF MUD
MUDD.KG/M     1070                 : MWT          - MUD DENSITY
NEUT.         1                    : NEUTRON      - NEUTRON TYPE
RESI.         0                    : RESIST       - RESISTIVITY TYPE
RM  .OHMM     13                   : RM           - RESISTIVITY OF MUD
RMC .OHMM     10                   : RMC          - RESISTIVITY OF MUD CAKE
RMF .OHMM     7.2                  : RMF          - RESISTIVITY OF MUD FILTRATE
SUFT.C        4                    : SUFT         - SURFACE TEMPERATURE
~A  DEPTH       GR     PHIN     DENS     RESD
   10.000   48.620    0.606 2387.140    4.346
   10.250   48.565    0.617 2387.250    4.271
   10.500   49.771    0.583 2379.340    4.057
   10.750   51.573    0.594 2381.450    3.921
   11.000   52.766    0.604 2427.500    3.724
   11.250   53.958    0.531 2465.550    3.661
   11.500   54.527    0.534 2461.700    3.535
   11.750   56.343    0.543 2315.970    3.474
   12.000   56.912    0.549 2192.250    3.585
   12.250   56.234    0.395 2160.380    3.826
   12.500   55.556    0.389 2144.520    4.361
   12.750   53.646    0.384 2134.640    8.028
   13.000   48.591    0.385 2126.800  112.838
   13.250   44.174    0.393 2118.920  132.929
   13.500   41.626    0.404 2111.070  137.211
   13.750   37.195    0.417 2105.130  132.573
   14.000   33.414    0.425 2099.250  125.993
   14.250   25.866    0.429 2095.400  110.172
   14.500   24.565    0.436 2091.520  104.704
   14.750   24.511    0.439 2087.630  111.707
   15.000   23.820    0.414 2083.750  121.204
   15.250   23.752    0.402 2085.860  135.881
   15.500   23.725    0.395 2093.960  142.497
   15.750   23.670    0.387 2110.080  142.354
   16.000   23.616    0.382 2124.170  144.482
   16.250   24.171    0.378 2126.280  149.186
   16.500   25.364    0.378 2114.410  159.217
   16.750   27.193    0.379 2112.520  190.690
   17.000   28.995    0.391 2116.630  221.037
   17.250   29.564    0.411 2124.730  317.489
   17.500   29.510    0.421 2128.830  503.549
   17.750   28.209    0.407 2122.950  528.425
   18.000   26.908    0.398 2111.080  477.915
   18.250   26.840    0.396 2109.170  535.606
   18.500   26.786    0.407 2105.290  590.822
   18.750   27.355    0.422 2101.430  719.644
   19.000   28.547    0.431 2097.550  608.827
   19.250   29.739    0.434 2089.670  569.129
   19.500   30.308    0.434 2079.800  716.509
   19.750   30.268    0.413 2071.890  790.109
   20.000   29.590    0.410 2074.060  691.361
   20.250   28.912    0.408 2078.110  667.992
   20.500   28.221    0.407 2092.230  826.916
   20.750   27.544    0.418 2102.350  772.998
   21.000   28.099    0.442 2098.500  941.225
   21.250   29.291    0.451 2096.560 2575.870
   21.500   29.860    0.453 2086.710 3241.810
   21.750   31.039    0.445 2078.800 3031.450
   22.000   31.635    0.439 2070.930 3076.780
   22.250   32.204    0.449 2077.030 3338.360
   22.500   31.513    0.462 2089.150 3067.490
   22.750   30.212    0.459 2097.230 3014.190
   23.000   29.521    0.450 2095.340 2960.820
   23.250   29.480    0.439 2091.460 2677.810
   23.500   30.672    0.448 2087.600 2304.740
   23.750   32.488    0.462 2085.690 1795.850
   24.000   33.680    0.466 2081.830 1519.820
   24.250   32.379    0.457 2079.950 1594.900
   24.500   29.832    0.449 2084.050 1730.490
   24.750   31.634    0.435 2086.140 1262.590
   25.000   30.956    0.427 2092.240  967.691
   25.250   28.409    0.428 2098.400 1032.060
   25.500   28.354    0.436 2092.550 1196.310
   25.750   29.560    0.450 2090.600 1556.690
   26.000   31.999    0.478 2088.720 1529.130
   26.250   37.555    0.478 2096.820  856.239
   26.500   44.357    0.461 2104.920  656.248
   26.750   50.536    0.473 2103.030  291.588
   27.000   51.742    0.496 2091.160  189.513
   27.250   43.571    0.509 2105.250  157.756
   27.500   36.037    0.502 2117.350  238.189
   27.750   29.112    0.472 2101.480 1124.780
   28.000   25.318    0.464 2087.610 3181.610
   28.250   25.887    0.474 2077.770 2563.240
   28.500   27.689    0.482 2077.880 1693.120
   28.750   28.881    0.488 2074.000 1556.790
   29.000   29.464    0.463 2070.110 1455.280
   29.250   29.410    0.454 2066.200 1477.540
   29.500   28.095    0.456 2060.320 1549.490
   29.750   27.404    0.463 2060.460 1574.240
   30.000   26.753    0.469 2060.580 1546.370
   30.250   25.452    0.473 2068.700 1444.090
   30.500   24.775    0.474 2076.780 1396.210
   30.750   26.590    0.469 2084.880 1304.300
   31.000   27.769    0.463 2091.010 1282.070
   31.250   28.338    0.459 2089.120 1280.340
   31.500   28.893    0.449 2085.240 1299.490
   31.750   29.462    0.432 2077.360 1276.480
   32.000   29.408    0.425 2073.450 1212.720
   32.250   29.354    0.437 2071.620 1153.300
   32.500   28.676    0.449 2083.720 1113.950
   32.750   27.375    0.453 2087.770 1094.220
   33.000   26.698    0.452 2099.860 1129.460
   33.250   27.267    0.445 2101.970 1225.080
   33.500   27.849    0.439 2092.120 1373.880
   33.750   29.042    0.439 2088.240 1465.770
   34.000   28.987    0.442 2084.360 1368.820
   34.250   28.919    0.443 2080.480 1322.990
   34.500   28.852    0.438 2080.590 1278.710
   34.750   28.824    0.425 2080.670 1235.070
   35.000   29.380    0.417 2078.840 1233.000
   35.250   29.922    0.426 2078.900 1252.270
   35.500   29.894    0.440 2085.000 1271.850
   35.750   30.450    0.443 2099.120 1333.790
   36.000   30.395    0.429 2095.240 1355.090
   36.250   30.355    0.414 2089.360 1421.560
   36.500   30.300    0.404 2083.480 1467.830
   36.750   29.000    0.417 2067.610 1540.340
   37.000   28.295    0.431 2075.710 1562.850
   37.250   28.268    0.434 2081.810 1561.800
   37.500   28.213    0.441 2083.920 1559.700
   37.750   30.029    0.455 2080.070 1557.090
   38.000   29.975    0.466 2076.190 1529.520
   38.250   29.907    0.469 2078.290 1477.320
   38.500   29.852    0.467 2082.400 1475.340
   38.750   30.408    0.458 2084.540 1600.230
   39.000   31.600    0.444 2086.590 1598.620
   39.250   34.053    0.423 2090.720 1518.770
   39.500   33.998    0.405 2092.860 1467.430
   39.750   32.684    0.403 2092.940 1465.950
   40.000   30.746    0.429 2089.060 1463.990
   40.250   30.096    0.458 2083.180 1510.630
   40.500   28.794    0.478 2081.300 1559.280
   40.750   28.740    0.469 2079.410 1482.390
   41.000   29.296    0.455 2073.560 1254.960
   41.250   29.878    0.456 2065.630 1153.130
   41.500   30.447    0.467 2057.750 1171.160
   41.750   31.016    0.449 2067.850 1312.980
   42.000   30.325    0.439 2076.000 1496.490
   42.250   28.374    0.446 2072.120 1650.760
   42.500   27.086    0.454 2076.230 1731.730
   42.750   25.799    0.457 2076.340 1672.630
   43.000   24.498    0.446 2076.480 1615.560
   43.250   25.067    0.445 2076.560 1588.020
   43.500   25.636    0.454 2076.670 1666.470
   43.750   26.828    0.438 2080.780 1748.790
   44.000   25.500    0.431 2084.880 1805.110
   44.250   24.849    0.445 2086.990 1832.720
   44.500   24.795    0.454 2083.110 1860.740
   44.750   25.337    0.433 2077.230 1628.190
   45.000   25.920    0.437 2077.370 1148.950
   45.250   25.215    0.453 2083.470  925.337
   45.500   24.551    0.441 2087.520  909.258
   45.750   23.887    0.427 2093.630  938.542
   46.000   22.572    0.420 2097.730 1001.310
   46.250   21.895    0.441 2099.870 1067.920
   46.500   21.217    0.429 2097.980 1102.320
   46.750   20.539    0.419 2094.100 1119.170
   47.000   20.498    0.436 2086.220 1136.290
   47.250   21.054    0.442 2074.380 1134.760
   47.500   21.637    0.439 2066.480 1096.410
   47.750   22.829    0.430 2068.580 1008.460
   48.000   24.008    0.421 2090.660  760.253
   48.250   25.200    0.426 2108.750  643.614
   48.500   25.769    0.419 2098.900  582.094
   48.750   25.701    0.419 2087.000  641.887
   49.000   25.647    0.433 2071.140  731.601
   49.250   26.839    0.444 2069.250  780.532
   49.500   29.278    0.417 2071.390  660.782
   49.750   31.731    0.427 2073.500  498.145
   50.000   36.026    0.412 2087.560  221.339
   50.250   35.972    0.394 2107.650  172.525
   50.500   38.424    0.389 2141.740  143.614
   50.750   47.734    0.400 2165.840  115.702
   51.000   57.653    0.414 2173.910   96.346
   51.250   58.222    0.412 2178.020   94.640
   51.500   56.297    0.406 2180.160  102.617
   51.750   58.736    0.402 2180.240  120.929
   52.000   64.915    0.402 2184.370  126.903
   52.250   75.457    0.402 2188.480   97.295
   52.500   79.143    0.395 2196.610   75.812
   52.750   68.492    0.384 2198.660   69.708
   53.000   49.101    0.391 2194.830   84.878
   53.250   37.204    0.365 2182.910  108.602
