~VERSION INFORMATION
 VERS.                 2.0:   CWLS LOG ASCII STANDARD -VERSION 2.0
 WRAP.                  NO:   ONE LINE PER DEPTH STEP
~WELL INFORMATION BLOCK
#MNEM.UNIT           DATA                    DESCRIPTION OF MNEMONIC
#---------    -------------------            -------------------------------
# Generated from Intellog Unique Number	CN_94_101/WELL/3455
WELL.         16-28-095-10W4                 : Well_name    - WELL
LOC .         AB/16-28-095-10W4/0            : Location     - LOCATION
UWI .         AB/16-28-095-10W400            : Uwi          - UNIQUE WELL ID
ENTR.         JOETTE                         : Entered      - ENTERED BY
SRVC.         SCHLUMBERGER                   : Scn          - SERVICE COMPANY
DATE.         07/29/92                       : Date         - LOG DATE
STRT.M        5                              : top_depth    - START DEPTH
STOP.M        82.5                           : bot_depth    - STOP DEPTH
STEP.M        0.25                           : increment    - STEP LENGTH
 NULL. -999.2500:NULL Value
~CURVE INFORMATION BLOCK
#MNEM UNIT       ERCB CURVE CODE    CURVE DESCRIPTION
#-----------   ------------------   ----------------------------------
DEPT.M        00 001 00 00         : DEPTH        - DEPTH
GR  .API      00 310 00 00         : GR           - GAMMA RAY
ILD .OHMM     00 120 00 00         : RESD         - DEEP RESISTIVITY (DIL)
DPHI.V/V      00 890 00 00         : PHID         - DENSITY POROSITY (SANDSTONE)
NPHI.V/V      00 330 00 00         : PHIN         - NEUTRON POROSITY (SANDSTONE)
~PARAMETER INFORMATION
#MNEM.UNIT           DATA             DESCRIPTION OF MNEMONIC
#---------         -----------     ------------------------------
GL  .M        302.057              : gl           - GROUND LEVEL ELEVATION
EREF.M        302.971              : kb           - ELEVATION OF DEPTH REFERENCE
DATM.M        302.971              : datum        - DATUM ELEVATION
TDD .M        84.7344              : tdd          - TOTAL DEPTH DRILLER
RUN .         ONE                  : Run          - RUN NUMBER
ENG .         BILL                 : Engineer     - RECORDING ENGINEER
WIT .         JIM                  : Witness      - WITNESSED BY
MUD .         GEL                  : Mud_type     - MUD TYPE
MATR.         SANDSTONE            : Logunit      - NEUTRON MATRIX
TMAX.F        62                   : BHT          - MAXIMUM RECORDED TEMPERATURE
BHTD.F        278                  : BHTDEP       - MAXIMUM RECORDED TEMPERATURE
RMT .F        62                   : MDTP         - TEMPERATURE OF MUD
MUDD.LB/G     9.1                  : MWT          - MUD DENSITY
NEUT.         1                    : NEUTRON      - NEUTRON TYPE
RESI.         0                    : RESIST       - RESISTIVITY TYPE
RM  .OHMM     9.23                 : RM           - RESISTIVITY OF MUD
RMC .OHMM     9.23                 : RMC          - RESISTIVITY OF MUD CAKE
RMF .OHMM     9.23                 : RMF          - RESISTIVITY OF MUD FILTRATE
SUFT.F        39.2                 : SUFT         - SURFACE TEMPERATURE
~A  DEPTH       GR     RESD     PHID     PHIN
    5.000   47.998    0.480   -0.010    0.435
    5.250   50.549    0.454   -0.017    0.435
    5.500   54.370    0.455   -0.014    0.435
    5.750   56.914    0.463    0.002    0.435
    6.000   63.267    0.505    0.031    0.429
    6.250   65.818    0.583    0.072    0.420
    6.500   70.889    0.732    0.119    0.417
    6.750   77.861    1.493    0.174    0.410
    7.000   83.569    2.194    0.238    0.393
    7.250   85.489    3.934    0.277    0.394
    7.500   81.725    5.239    0.286    0.398
    7.750   78.593    5.552    0.276    0.402
    8.000   82.407    7.184    0.251    0.406
    8.250   79.913   39.550    0.215    0.407
    8.500   83.090   41.933    0.161    0.392
    8.750   83.121   36.449    0.123    0.370
    9.000   76.194   37.051    0.166    0.380
    9.250   77.482   44.634    0.197    0.393
    9.500   86.348   39.335    0.238    0.404
    9.750   80.690   35.678    0.249    0.396
   10.000   80.091   34.265    0.261    0.399
   10.250   78.215   36.314    0.265    0.394
   10.500   71.294   34.370    0.243    0.388
   10.750   65.005   31.634    0.184    0.387
   11.000   68.825   33.525    0.199    0.394
   11.250   74.528   47.905    0.227    0.397
   11.500   73.290   46.646    0.245    0.389
   11.750   67.001   38.309    0.212    0.381
   12.000   55.660   43.603    0.211    0.360
   12.250   59.480   65.943    0.206    0.365
   12.500   63.294   58.139    0.199    0.375
   12.750   56.998   57.420    0.188    0.377
   13.000   57.655   57.520    0.192    0.375
   13.250   63.370   63.638    0.199    0.377
   13.500   69.710   72.496    0.209    0.387
   13.750   64.052   68.556    0.222    0.374
   14.000   56.493   64.000    0.235    0.366
   14.250   44.521   98.131    0.244    0.371
   14.500   50.230  142.225    0.248    0.380
   14.750   59.102  130.846    0.256    0.388
   15.000   61.028  105.899    0.264    0.396
   15.250   64.204   75.433    0.274    0.379
   15.500   51.594   97.596    0.287    0.367
   15.750   45.942  112.672    0.299    0.372
   16.000   56.071  109.710    0.309    0.371
   16.250   68.094  150.233    0.288    0.377
   16.500   76.966  132.453    0.257    0.385
   16.750   82.669  107.200    0.197    0.395
   17.000   88.383   68.196    0.176    0.394
   17.250   82.719   60.099    0.180    0.389
   17.500   81.488   52.285    0.187    0.388
   17.750   81.507   53.079    0.171    0.388
   18.000   77.750   56.326    0.139    0.385
   18.250   79.032   57.180    0.116    0.381
   18.500   91.686   56.498    0.146    0.381
   18.750  104.347   53.450    0.153    0.384
   19.000   94.901   52.046    0.176    0.387
   19.250   91.144   52.905    0.176    0.391
   19.500   91.800   51.514    0.168    0.383
   19.750   94.977   51.604    0.171    0.383
   20.000   91.213   52.410    0.179    0.391
   20.250   82.398   53.252    0.183    0.393
   20.500   83.055   51.852    0.173    0.391
   20.750   90.026   55.786    0.174    0.388
   21.000   97.629   58.314    0.172    0.384
   21.250  102.075   55.168    0.171    0.374
   21.500   76.841   47.278    0.182    0.361
   21.750   72.446   39.383    0.192    0.365
   22.000   81.944   43.572    0.187    0.369
   22.250   98.387   47.526    0.164    0.374
   22.500   87.684   38.499    0.166    0.378
   22.750   90.235   38.023    0.167    0.388
   23.000   88.991   38.633    0.153    0.386
   23.250  100.389   37.088    0.142    0.378
   23.500  104.197   35.589    0.130    0.388
   23.750  106.748   33.209    0.144    0.391
   24.000  102.353   31.881    0.155    0.387
   24.250  113.745   32.856    0.149    0.375
   24.500  123.880   30.214    0.138    0.376
   24.750  120.748   27.797    0.130    0.381
   25.000  118.254   28.243    0.125    0.387
   25.250  107.532   27.113    0.125    0.390
   25.500  110.096   26.778    0.121    0.390
   25.750  115.798   27.208    0.123    0.390
   26.000  119.612   28.040    0.124    0.390
   26.250  110.165   30.181    0.121    0.391
   26.500  108.934   30.665    0.136    0.392
   26.750  115.899   29.846    0.148    0.392
   27.000  126.028   28.249    0.157    0.393
   27.250  127.316   27.119    0.167    0.393
   27.500  115.344   26.045    0.176    0.393
   27.750  109.054   26.068    0.178    0.388
   28.000  100.870   28.046    0.205    0.383
   28.250   86.997   30.592    0.221    0.349
   28.500   45.346   38.455    0.246    0.355
   28.750   42.214   73.013    0.283    0.357
   29.000   48.553   93.093    0.287    0.354
   29.250   54.268  157.715    0.270    0.349
   29.500   54.294  141.036    0.252    0.342
   29.750   55.582  141.344    0.227    0.349
   30.000   59.390  149.860    0.234    0.356
   30.250   63.835  168.168    0.250    0.367
   30.500   52.494  217.576    0.268    0.373
   30.750   37.996  208.782    0.290    0.325
   31.000   43.704  294.385    0.186    0.322
   31.250   91.096  316.443    0.133    0.343
   31.500  106.908  375.839    0.138    0.360
   31.750  107.565  122.565    0.156    0.381
   32.000  105.064   81.325    0.170    0.379
   32.250   98.775   66.819    0.174    0.380
   32.500   93.749   67.892    0.180    0.381
   32.750  102.615   67.981    0.192    0.379
   33.000   91.905   66.223    0.217    0.378
   33.250   81.195   65.376    0.235    0.384
   33.500   67.328   64.567    0.206    0.368
   33.750   57.882   66.571    0.192    0.374
   34.000   68.010   69.587    0.189    0.381
   34.250   72.456   72.708    0.219    0.383
   34.500   66.167   81.662    0.238    0.367
   34.750   67.461   87.781    0.251    0.368
   35.000   74.426  101.340    0.224    0.371
   35.250   83.924  118.665    0.192    0.378
   35.500   91.527  100.305    0.184    0.388
   35.750   98.498   83.518    0.176    0.388
   36.000  109.896   71.574    0.170    0.381
   36.250  106.133   66.759    0.158    0.384
   36.500   99.843   53.293    0.165    0.379
   36.750   89.759   46.986    0.177    0.374
   37.000   84.732   47.068    0.194    0.373
   37.250   93.605   49.904    0.162    0.378
   37.500  108.154   55.211    0.139    0.383
   37.750   97.444   58.537    0.137    0.390
   38.000  105.678   52.347    0.153    0.392
   38.250  110.756   43.605    0.190    0.380
   38.500  108.255   39.551    0.230    0.372
   38.750  103.229   38.495    0.263    0.367
   39.000   92.519   38.019    0.291    0.363
   39.250   28.759   40.903    0.307    0.361
   39.500   25.628   73.343    0.315    0.369
   39.750   28.810  219.280    0.319    0.379
   40.000   31.999  341.177    0.326    0.383
   40.250   34.550  501.546    0.334    0.375
   40.500   35.832  630.748    0.335    0.367
   40.750   36.489  588.575    0.323    0.362
   41.000   42.829  483.378    0.290    0.357
   41.250   52.327  470.468    0.265    0.368
   41.500   60.567  252.322    0.243    0.369
   41.750   66.907  137.259    0.250    0.375
   42.000   65.670  114.288    0.255    0.389
   42.250   61.275  147.866    0.261    0.387
   42.500   58.774  196.731    0.262    0.379
   42.750   66.377  134.353    0.236    0.376
   43.000   72.717  128.923    0.231    0.354
   43.250   68.954  316.005    0.243    0.360
   43.500   63.927  316.557    0.252    0.368
   43.750   26.696  216.280    0.259    0.364
   44.000   25.458  264.154    0.270    0.350
   44.250   21.688  372.135    0.280    0.340
   44.500   22.345  461.205    0.277    0.326
   44.750   21.120  697.508    0.258    0.315
   45.000   19.870 1570.150    0.247    0.317
   45.250   16.113 1235.770    0.256    0.321
   45.500   14.875  931.664    0.263    0.326
   45.750   14.900  833.141    0.249    0.329
   46.000   15.551  858.620    0.237    0.331
   46.250   18.108  923.762    0.242    0.332
   46.500   19.390 1036.160    0.245    0.327
   46.750   18.153  804.011    0.249    0.329
   47.000   13.764  783.222    0.246    0.333
   47.250   23.262  661.462    0.223    0.343
   47.500   38.442  527.807    0.125    0.352
   47.750   54.886   89.574    0.095    0.372
   48.000  166.062   11.446    0.083    0.417
   48.250  145.880   12.490    0.064    0.425
