~VERSION INFORMATION
 VERS.                 2.0:   CWLS LOG ASCII STANDARD -VERSION 2.0
 WRAP.                  NO:   ONE LINE PER DEPTH STEP
~WELL INFORMATION BLOCK
#MNEM.UNIT           DATA                    DESCRIPTION OF MNEMONIC
#---------    -------------------            -------------------------------
# Generated from Intellog Unique Number	CX_WELLS/WELL/1166
WELL.         10-08-089-08W4                 : Well_name    - WELL
LOC .         AB/10-08-089-08W4/0            : Location     - LOCATION
UWI .         AB/10-08-089-08W400            : Uwi          - UNIQUE WELL ID
ENTR.         JHS                            : Entered      - ENTERED BY
SRVC.         SCHLUMBERGER                   : Scn          - SERVICE COMPANY
STRT.F        100                            : top_depth    - START DEPTH
STOP.F        500.262                        : bot_depth    - STOP DEPTH
STEP.F        0.82                           : increment    - STEP LENGTH
 NULL. -999.2500:NULL Value
~CURVE INFORMATION BLOCK
#MNEM UNIT       ERCB CURVE CODE    CURVE DESCRIPTION
#-----------   ------------------   ----------------------------------
DEPT.F        00 001 00 00         : DEPTH        - DEPTH
GR  .API      00 310 00 00         : GR           - GAMMA RAY
DPHI.V/V      00 890 00 00         : PHID         - DENSITY POROSITY (SANDSTONE)
ILD .OHMM     00 120 00 00         : RESD         - DEEP RESISTIVITY (DIL)
~PARAMETER INFORMATION
#MNEM.UNIT           DATA             DESCRIPTION OF MNEMONIC
#---------         -----------     ------------------------------
GL  .M        385.359              : gl           - GROUND LEVEL ELEVATION
EREF.M        386.578              : kb           - ELEVATION OF DEPTH REFERENCE
DATM.M        386.578              : datum        - DATUM ELEVATION
TDD .M        156.667              : tdd          - TOTAL DEPTH DRILLER
RUN .         ONE                  : Run          - RUN NUMBER
ENG .         BILL                 : Engineer     - RECORDING ENGINEER
WIT .         JIM                  : Witness      - WITNESSED BY
MUD .         GEL                  : Mud_type     - MUD TYPE
MATR.         SANDSTONE            : Logunit      - NEUTRON MATRIX
TMAX.C        60                   : BHT          - MAXIMUM RECORDED TEMPERATURE
BHTD.M        156.667              : BHTDEP       - MAXIMUM RECORDED TEMPERATURE
MATR.         1                    : LOGUNIT      - NEUTRON MATRIX
RMT .C        25                   : MDTP         - TEMPERATURE OF MUD
NEUT.         1                    : NEUTRON      - NEUTRON TYPE
RESI.         0                    : RESIST       - RESISTIVITY TYPE
RMC .OHMM     0.25                 : RMC          - RESISTIVITY OF MUD CAKE
RMF .OHMM     0.25                 : RMF          - RESISTIVITY OF MUD FILTRATE
SUFT.C        15                   : SUFT         - SURFACE TEMPERATURE
~A  DEPTH       GR     PHID     RESD
# ...
  277.986   52.495    0.294  189.824
  278.806   48.645    0.278  176.617
  279.626   43.245    0.265  144.708
  280.446   39.008    0.234  108.270
  281.266   36.706    0.203  114.412
  282.087   40.992    0.200  116.572
  282.907   46.821    0.255  316.743
  283.727   46.842    0.286  667.388
  284.547   41.056    0.304  424.031
  285.367   39.146    0.316  246.055
  286.188   40.329    0.320  148.022
  287.008   41.517    0.319  110.750
  287.828   43.082    0.313  110.825
  288.648   46.981    0.303   43.903
  289.469   50.879    0.299   29.460
  290.289   52.062    0.295   40.876
  291.109   53.239    0.294   65.586
  291.929   50.943    0.296  336.577
  292.749   45.544    0.297  493.220
  293.570   39.758    0.299  458.904
  294.390   35.520    0.308  434.861
  295.210   31.282    0.321  435.038
  296.030   31.309    0.323  302.684
  296.850   32.105    0.316  119.923
  297.671   32.126    0.311   63.538
  298.491   32.534    0.311   53.992
  299.311   33.335    0.310   60.234
  300.131   34.906    0.307   79.142
  300.951   36.470    0.307   71.028
  301.772   42.692    0.307   62.573
  302.592   47.359    0.305   67.325
  303.412   53.575    0.301  112.020
  304.232   49.730    0.289  263.242
  305.052   45.105    0.294  253.988
  305.873   42.035    0.305  197.065
  306.693   40.889    0.318  167.435
  307.513   42.459    0.331   62.819
  308.333   42.868    0.321   49.634
  309.154   42.507    0.317   48.767
  309.974   40.211    0.311  125.496
  310.794   38.678    0.305  245.893
  311.614   36.763    0.311  250.604
  312.434   36.785    0.321  246.193
  313.255   37.968    0.323  264.891
  314.075   38.387    0.324  237.668
  314.895   39.957    0.325   75.722
  315.715   41.521    0.314   56.655
  316.535   50.071    0.315   65.552
  317.356   50.093    0.310  105.192
  318.176   49.334    0.299  105.249
  318.996   47.425    0.299  117.448
  319.816   46.667    0.306  133.427
  320.636   43.983    0.316  281.172
  321.457   42.450    0.324  369.435
  322.277   39.767    0.335  178.742
  323.097   41.337    0.353  101.839
  323.917   45.617    0.359  103.762
  324.738   51.064    0.333  143.969
  325.558   49.924    0.313  146.708
  326.378   46.461    0.312  163.690
  327.198   44.159    0.326  332.594
  328.018   41.470    0.334 1186.910
  328.839   40.330    0.328  872.057
  329.659   40.744    0.320  421.924
  330.479   45.411    0.319  263.247
  331.299   48.530    0.311  127.366
  332.119   50.880    0.305  102.477
  332.940   51.675    0.299  132.222
  333.760   49.771    0.291  129.930
  334.580   48.620    0.296  137.281
  335.400   47.480    0.300  155.979
  336.220   45.566    0.304  245.764
  337.041   44.044    0.306  527.397
  337.861   46.388    0.313  909.982
  338.681   52.217    0.321  145.383
  339.501   57.272    0.334   74.269
  340.322   63.106    0.326   24.538
  341.142   67.773    0.308   18.698
  341.962   64.697    0.277   22.028
  342.782   61.234    0.283   70.493
  343.602   53.125    0.308  242.588
  344.423   49.274    0.340  635.630
  345.243   41.939    0.371  835.274
  346.063   38.089    0.395  475.901
  346.883   33.464    0.422  450.967
  347.703   29.613    0.416  467.842
  348.524   27.317    0.406  451.396
  349.344   27.338    0.400  503.646
  350.164   26.973    0.394  626.735
  350.984   27.381    0.379  572.633
  351.804   29.338    0.371  532.791
  352.625   31.693    0.370  370.697
  353.445   34.425    0.369  244.240
  354.265   36.764    0.365  158.024
  355.085   37.565    0.362   73.728
  355.906   36.043    0.360   51.305
  356.726   35.285    0.361   57.243
  357.546   33.370    0.373   76.591
  358.366   32.235    0.380  208.109
  359.186   31.864    0.380  118.571
  360.007   31.122    0.379   60.581
  360.827   29.981    0.374  164.629
  361.647   29.616    0.366  316.762
  362.467   30.024    0.358  153.257
  363.287   32.750    0.364   87.319
  364.108   38.197    0.375  137.582
  364.928   42.865    0.387  220.781
  365.748   47.925    0.361  290.086
  366.568   53.367    0.344  209.299
  367.388   51.839    0.320  123.661
  368.209   49.537    0.307   73.073
  369.029   46.074    0.316   75.817
  369.849   43.385    0.335   83.070
  370.669   39.922    0.371   96.115
  371.490   36.077    0.393  113.247
  372.310   32.614    0.427  140.905
  373.130   30.699    0.444  206.482
  373.950   29.559    0.421  252.286
  374.770   29.967    0.394   92.951
  375.591   31.543    0.381   53.930
  376.411   32.338    0.370   41.843
  377.231   32.752    0.362   41.112
  378.051   32.768    0.359   44.240
  378.871   32.789    0.353   47.594
  379.692   33.590    0.345   45.094
  380.512   34.386    0.342   40.471
  381.332   33.639    0.346   41.229
  382.152   32.106    0.352   55.165
  382.972   29.417    0.354  114.157
  383.793   27.115    0.359  167.263
  384.613   26.367    0.365  129.776
  385.433   26.776    0.378   95.350
  386.253   26.023    0.393  116.502
  387.073   25.270    0.390  100.800
  387.894   24.135    0.369   95.532
  388.714   23.382    0.348  104.657
  389.534   23.016    0.342  108.588
  390.354   23.038    0.334  127.943
  391.175   22.672    0.336   84.297
  391.995   25.021    0.339   72.935
  392.815   24.268    0.343   61.978
  393.635   22.741    0.346   63.174
  394.455   21.213    0.348   65.520
  395.276   20.460    0.347   73.104
  396.096   20.482    0.343  105.198
  396.916   21.670    0.343  135.733
  397.736   23.633    0.349  206.234
  398.556   24.810    0.350  337.014
  399.377   26.767    0.354  419.322
  400.197   29.504    0.363   77.460
  401.017   32.236    0.363   64.647
  401.837   33.031    0.338   64.682
  402.657   31.891    0.330   74.829
  403.478   30.364    0.333  120.063
  404.298   28.836    0.339  210.985
  405.118   28.089    0.350  332.433
  405.938   27.723    0.359  406.177
  406.759   27.357    0.358  239.983
  407.579   26.991    0.342  124.860
  408.399   27.018    0.324   67.367
  409.219   26.265    0.323   42.032
  410.039   30.158    0.335   29.780
  410.860   53.028    0.344   28.733
  411.680   72.413    0.325   33.859
  412.500   78.242    0.299   39.894
  413.320   75.946    0.264   40.653
  414.140   74.424    0.180   33.309
  414.961   74.053    0.184   35.833
  415.781   73.687    0.199   47.951
  416.601   73.326    0.204   59.662
  417.421   72.573    0.191   57.573
  418.241   70.653    0.191   52.596
  419.062   69.131    0.196   58.692
  419.882   68.378    0.208   70.421
  420.702   67.625    0.223   62.054
  421.522   66.490    0.247   60.962
  422.343   60.699    0.262   59.906
  423.163   53.751    0.261   59.938
  423.983   56.483    0.265   57.831
  424.803   62.317    0.267   50.037
  425.623   58.466    0.261   51.916
  426.444   53.067    0.249   50.098
  427.264   50.771    0.252   45.767
  428.084   52.723    0.252   38.891
  428.904   56.229    0.252   27.555
  429.724   60.127    0.252   22.991
  430.545   62.477    0.246   25.652
  431.365   59.008    0.250   45.071
  432.185   48.963    0.253  543.252
  433.005   43.176    0.247  795.975
  433.825   38.939    0.243  714.173
  434.646   33.927    0.246  479.168
  435.466   28.141    0.250  240.411
  436.286   24.677    0.256  112.167
  437.106   23.150    0.266   28.734
  437.927   50.279    0.269   13.406
  438.747   65.406    0.277   22.309
  439.567   78.596    0.283   23.578
  440.387   87.522    0.281   23.163
  441.207   88.711    0.275   22.755
  442.028   84.086    0.256   23.613
  442.848   80.236    0.222   24.952
  443.668   83.359    0.192   25.886
  444.488   85.311    0.176   27.856
  445.308   86.887    0.179   29.967
  446.129   85.747    0.180   33.445
  446.949   86.935    0.179   35.333
  447.769   88.112    0.178   38.718
  448.589   88.908    0.182   43.194
  449.409   85.832    0.188   49.983
  450.230   82.374    0.195   52.811
  451.050   75.039    0.201   52.840
  451.870   68.091    0.205   50.989
  452.690   62.687    0.206   49.190
  453.510   60.390    0.211   42.566
  454.331   70.865    0.216   28.556
  455.151   77.479    0.218   19.871
