~VERSION INFORMATION
 VERS.                 2.0:   CWLS LOG ASCII STANDARD -VERSION 2.0
 WRAP.                  NO:   ONE LINE PER DEPTH STEP
~WELL INFORMATION BLOCK
#MNEM.UNIT           DATA                    DESCRIPTION OF MNEMONIC
#---------    -------------------            -------------------------------
# Generated from Intellog Unique Number	CN_94_101/WELL/1074
WELL.         11-15-094-08W4                 : Well_name    - WELL
LOC .         AB/11-15-094-08W4/0            : Location     - LOCATION
UWI .         AB/11-15-094-08W400            : Uwi          - UNIQUE WELL ID
ENTR.         JOETTE                         : Entered      - ENTERED BY
SRVC.         SCHLUMBERGER                   : Scn          - SERVICE COMPANY
DATE.         04/22/92                       : Date         - LOG DATE
STRT.M        12                             : top_depth    - START DEPTH
STOP.M        140                            : bot_depth    - STOP DEPTH
STEP.M        0.25                           : increment    - STEP LENGTH
 NULL. -999.2500:NULL Value
~CURVE INFORMATION BLOCK
#MNEM UNIT       ERCB CURVE CODE    CURVE DESCRIPTION
#-----------   ------------------   ----------------------------------
DEPT.M        00 001 00 00         : DEPTH        - DEPTH
DPHI.V/V      00 890 00 00         : PHID         - DENSITY POROSITY (SANDSTONE)
NPHI.V/V      00 330 00 00         : PHIN         - NEUTRON POROSITY (SANDSTONE)
CALI.MM       00 280 01 00         : CAL          - CALIPER
ILD .OHMM     00 120 00 00         : RESD         - DEEP RESISTIVITY (DIL)
GR  .API      00 310 00 00         : GR           - GAMMA RAY
~PARAMETER INFORMATION
#MNEM.UNIT           DATA             DESCRIPTION OF MNEMONIC
#---------         -----------     ------------------------------
GL  .M        396.83               : gl           - GROUND LEVEL ELEVATION
EREF.M        396.83               : kb           - ELEVATION OF DEPTH REFERENCE
DATM.M        396.83               : datum        - DATUM ELEVATION
TDD .M        145.2                : tdd          - TOTAL DEPTH DRILLER
RUN .         ONE                  : Run          - RUN NUMBER
ENG .         BILL                 : Engineer     - RECORDING ENGINEER
WIT .         JIM                  : Witness      - WITNESSED BY
MUD .         GEL                  : Mud_type     - MUD TYPE
MATR.         SANDSTONE            : Logunit      - NEUTRON MATRIX
TMAX.C        6                    : BHT          - MAXIMUM RECORDED TEMPERATURE
BHTD.M        145.2                : BHTDEP       - MAXIMUM RECORDED TEMPERATURE
RMT .C        6                    : MDTP         - TEMPERATURE OF MUD
MUDD.KG/M     1050                 : MWT          - MUD DENSITY
NEUT.         1                    : NEUTRON      - NEUTRON TYPE
RESI.         0                    : RESIST       - RESISTIVITY TYPE
RM  .OHMM     17                   : RM           - RESISTIVITY OF MUD
RMC .OHMM     17                   : RMC          - RESISTIVITY OF MUD CAKE
RMF .OHMM     17                   : RMF          - RESISTIVITY OF MUD FILTRATE
SUFT.C        4                    : SUFT         - SURFACE TEMPERATURE
~A  DEPTH     PHID     PHIN      CAL     RESD       GR
# ...
   48.500    0.316    0.514  151.012    6.254  107.899
   48.750    0.293    0.566  150.252    5.660  110.902
   49.000    0.272    0.564  148.688    5.022  116.989
   49.250    0.272    0.515  148.927    4.825  114.438
   49.500    0.286    0.533  147.772    5.304  111.271
   49.750    0.273    0.612  147.812    6.807  111.805
   50.000    0.250    0.599  148.845    8.570  126.509
   50.250    0.242    0.549  150.088    8.067  123.362
   50.500    0.241    0.470  149.528    6.503  114.005
   50.750    0.280    0.556  149.168    5.443  118.241
   51.000    0.299    0.607  148.213    5.323  115.053
   51.250    0.305    0.513  148.847    4.734  113.119
   51.500    0.300    0.480  150.085    3.082  117.376
   51.750    0.295    0.482  149.125    2.630  120.995
   52.000    0.302    0.547  148.974    4.102  119.679
   52.250    0.307    0.520  148.404    4.779  114.023
   52.500    0.309    0.524  152.444    3.563  109.622
   52.750    0.303    0.534  156.684    2.816  105.200
   53.000    0.277    0.501  154.731    3.036  102.032
   53.250    0.258    0.548  166.958    4.732   98.865
   53.500    0.210    0.489  156.802    6.314   95.039
   53.750    0.143    0.414  150.843    6.059   95.594
   54.000    0.248    0.371  150.287    3.651  111.553
   54.250    0.278    0.488  151.326    3.572  113.938
   54.500    0.290    0.500  153.373    4.411  116.323
   54.750    0.252    0.466  154.806    4.943  116.837
   55.000    0.211    0.456  154.645    4.306  116.796
   55.250    0.224    0.439  148.691    3.824  117.289
   55.500    0.285    0.527  148.925    3.395  117.823
   55.750    0.330    0.557  152.770    3.805  114.656
   56.000    0.350    0.551  152.005    4.883  112.743
   56.250    0.369    0.652  150.646    6.151  107.704
   56.500    0.373    0.587  149.691    6.379   98.367
   56.750    0.367    0.605  149.531    7.008   93.945
   57.000    0.355    0.662  149.974    9.356  105.606
   57.250    0.354    0.614  150.004   18.762  106.736
   57.500    0.344    0.599  149.848    8.447   99.867
   57.750    0.329    0.612  150.287    7.952  101.018
   58.000    0.324    0.615  152.324    9.086  105.872
   58.250    0.311    0.558  150.570    9.987  102.087
   58.500    0.340    0.550  152.812    6.502   95.814
   58.750    0.343    0.558  151.843    2.873   92.647
   59.000    0.333    0.517  152.886    1.541   98.117
   59.250    0.347    0.508  152.521    0.928  104.204
   59.500    0.359    0.505  152.565    0.402  108.440
   59.750    0.348    0.556  153.209    0.547  105.273
   60.000    0.258    0.516  152.843    0.424   99.638
   60.250    0.168    0.495  153.492    0.349   97.046
   60.500    0.206    0.479  153.127    0.270  101.920
   60.750    0.301    0.479  153.561    0.563  100.583
   61.000    0.346    0.549  154.614    0.861   97.415
   61.250    0.331    0.590  154.843    1.084   94.885
   61.500    0.329    0.636  155.482    1.392   89.847
   61.750    0.333    0.564  156.125    2.483   87.296
   62.000    0.333    0.548  156.359    5.281   90.298
   62.250    0.336    0.555  156.403    3.862   95.151
   62.500    0.343    0.612  156.238    2.879   98.771
   62.750    0.329    0.608  156.287    4.074   94.349
   63.000    0.326    0.621  156.122    5.761   98.606
   63.250    0.319    0.579  156.161    6.972  100.991
   63.500    0.319    0.633  156.205   10.261  102.142
   63.750    0.333    0.611  155.855    5.833  109.463
   64.000    0.352    0.576  155.489    2.783  108.763
   64.250    0.350    0.554  154.920    2.288  103.704
   64.500    0.322    0.611  153.565    2.935  101.750
   64.750    0.304    0.446  152.406    3.556  106.644
   65.000    0.304    0.426  151.441    2.923  104.073
   65.250    0.302    0.456  150.491    1.830   99.055
   65.500    0.290    0.520  148.932    2.691  105.163
   65.750    0.291    0.493  148.167    3.881  109.357
   66.000    0.262    0.461  148.002    2.527  106.190
   66.250    0.256    0.486  148.241    1.552  103.002
   66.500    0.209    0.560  148.680    1.706  101.727
   66.750    0.193    0.472  148.924    1.839  101.644
   67.000    0.237    0.466  148.568    1.601  107.711
   67.250    0.315    0.519  148.408    1.537  107.032
   67.500    0.301    0.497  147.853    2.798  103.844
   67.750    0.263    0.455  147.283    4.528  100.656
   68.000    0.246    0.386  146.128    4.263   97.509
   68.250    0.261    0.434  145.363    4.336   99.257
   68.500    0.296    0.555  145.412    4.328  101.642
   68.750    0.298    0.517  145.452    3.844   94.773
   69.000    0.294    0.508  145.291    3.547   83.564
   69.250    0.297    0.485  144.931    5.320   98.309
   69.500    0.312    0.390  144.566    8.288  108.098
   69.750    0.324    0.370  143.801   13.172  130.247
   70.000    0.313    0.364  142.841    7.065  138.205
   70.250    0.316    0.309  141.087    5.367  108.467
   70.500    0.329    0.303  140.132    5.570  105.917
   70.750    0.373    0.350  139.967    9.026  100.261
   71.000    0.352    0.328  140.006    6.600   89.670
   71.250    0.330    0.362  140.055    5.318   94.523
   71.500    0.329    0.415  139.096    6.440   91.355
   71.750    0.320    0.419  138.730    8.597   86.954
   72.000    0.309    0.371  139.964   17.242   88.085
   72.250    0.304    0.331  139.813   26.346   88.640
   72.500    0.301    0.368  139.647   33.167   84.814
   72.750    0.300    0.379  140.086   39.395   81.667
   73.000    0.303    0.387  140.330   46.819   74.161
   73.250    0.310    0.375  139.965   97.549   72.227
   73.500    0.302    0.370  138.006  199.460   86.355
   73.750    0.302    0.397  138.645  129.927   95.527
   74.000    0.300    0.402  141.087   81.369  100.380
   74.250    0.277    0.389  142.919   69.401  100.277
   74.500    0.312    0.358  141.160   69.321   97.747
   74.750    0.324    0.349  136.609   66.531   89.603
   75.000    0.329    0.366  137.448   59.057   97.561
   75.250    0.308    0.350  138.481   66.185   98.096
   75.500    0.306    0.365  137.526   62.302   96.779
   75.750    0.305    0.421  139.369   59.795   94.846
   76.000    0.304    0.414  139.008   66.973   99.699
   76.250    0.305    0.362  140.242   69.499  102.064
   76.500    0.332    0.356  136.889   45.245  100.130
   76.750    0.343    0.400  134.326   44.273  100.664
   77.000    0.343    0.374  135.764   53.616   99.965
   77.250    0.320    0.389  139.804   66.201  101.116
   77.500    0.315    0.357  139.649   68.618   99.779
   77.750    0.309    0.378  138.689   68.459   91.676
   78.000    0.303    0.402  137.724   86.231   86.041
   78.250    0.311    0.397  138.168  153.952   76.683
   78.500    0.314    0.377  138.602  491.566   75.984
   78.750    0.314    0.412  138.441  643.648   84.539
   79.000    0.314    0.390  139.290  403.095   88.137
   79.250    0.292    0.350  139.529  386.873   84.374
   79.500    0.286    0.311  139.568  299.849   79.952
   79.750    0.280    0.358  139.812  122.606   73.082
   80.000    0.283    0.361  139.851  160.446   79.786
   80.250    0.294    0.383  139.881   89.453   87.128
   80.500    0.291    0.384  139.720   77.879   87.025
   80.750    0.293    0.381  138.161   82.350   78.305
   81.000    0.298    0.377  137.601  123.492   65.862
   81.250    0.300    0.374  137.650  152.478   54.037
   81.500    0.298    0.377  137.685  207.422   55.805
   81.750    0.298    0.372  137.724  271.280   64.360
   82.000    0.306    0.375  137.773  223.102   68.596
   82.250    0.311    0.401  138.412   68.175   70.365
   82.500    0.310    0.377  139.440   66.673   62.879
   82.750    0.320    0.424  138.880   62.761   49.819
   83.000    0.331    0.400  137.725   59.045   57.757
   83.250    0.322    0.392  138.164   57.745   68.183
   83.500    0.312    0.369  138.603   58.806   52.656
   83.750    0.311    0.410  139.242   60.953   48.234
   84.000    0.304    0.374  138.882   64.452   43.216
   84.250    0.304    0.399  137.922   69.525   51.154
   84.500    0.302    0.388  138.760   85.844   51.688
   84.750    0.299    0.365  138.005   70.517   46.670
