~VERSION INFORMATION
 VERS.                 2.0:   CWLS LOG ASCII STANDARD -VERSION 2.0
 WRAP.                  NO:   ONE LINE PER DEPTH STEP
~WELL INFORMATION BLOCK
#MNEM.UNIT           DATA                    DESCRIPTION OF MNEMONIC
#---------    -------------------            -------------------------------
# Generated from Intellog Unique Number	CN_91_93/WELL/3654
WELL.         12-15-093-11W4                 : Well_name    - WELL
LOC .         AB/12-15-093-11W4/0            : Location     - LOCATION
UWI .         AB/12-15-093-11W400            : Uwi          - UNIQUE WELL ID
ENTR.         JOETTE                         : Entered      - ENTERED BY
SRVC.         SCHLUMBERGER                   : Scn          - SERVICE COMPANY
DATE.         03/20/92                       : Date         - LOG DATE
STRT.M        0                              : top_depth    - START DEPTH
STOP.M        110                            : bot_depth    - STOP DEPTH
STEP.M        0.25                           : increment    - STEP LENGTH
 NULL. -999.2500:NULL Value
~CURVE INFORMATION BLOCK
#MNEM UNIT       ERCB CURVE CODE    CURVE DESCRIPTION
#-----------   ------------------   ----------------------------------
DEPT.M        00 001 00 00         : DEPTH        - DEPTH
GR  .API      00 310 00 00         : GR           - GAMMA RAY
NPHI.V/V      00 330 00 00         : PHIN         - NEUTRON POROSITY (SANDSTONE)
DPHI.V/V      00 890 00 00         : PHID         - DENSITY POROSITY (SANDSTONE)
ILD .OHMM     00 120 00 00         : RESD         - DEEP RESISTIVITY (DIL)
~PARAMETER INFORMATION
#MNEM.UNIT           DATA             DESCRIPTION OF MNEMONIC
#---------         -----------     ------------------------------
GL  .M        323.7                : gl           - GROUND LEVEL ELEVATION
EREF.M        323.7                : kb           - ELEVATION OF DEPTH REFERENCE
DATM.M        323.7                : datum        - DATUM ELEVATION
TDD .M        112.2                : tdd          - TOTAL DEPTH DRILLER
RUN .         ONE                  : Run          - RUN NUMBER
ENG .         BILL                 : Engineer     - RECORDING ENGINEER
WIT .         JIM                  : Witness      - WITNESSED BY
MUD .         GEL                  : Mud_type     - MUD TYPE
MATR.         SANDSTONE            : Logunit      - NEUTRON MATRIX
TMAX.C        8                    : BHT          - MAXIMUM RECORDED TEMPERATURE
BHTD.M        112.2                : BHTDEP       - MAXIMUM RECORDED TEMPERATURE
RMT .C        18                   : MDTP         - TEMPERATURE OF MUD
MUDD.KG/M     1100                 : MWT          - MUD DENSITY
NEUT.         1                    : NEUTRON      - NEUTRON TYPE
RESI.         0                    : RESIST       - RESISTIVITY TYPE
RM  .OHMM     6.4                  : RM           - RESISTIVITY OF MUD
RMC .OHMM     6.4                  : RMC          - RESISTIVITY OF MUD CAKE
RMF .OHMM     6.4                  : RMF          - RESISTIVITY OF MUD FILTRATE
SUFT.C        -15                  : SUFT         - SURFACE TEMPERATURE
~A  DEPTH       GR     PHIN     PHID     RESD
# ...
   43.500  100.710    0.479    0.195   10.708
   43.750   91.621    0.396    0.157    4.057
   44.000  121.844    0.552    0.224    4.224
   44.250  125.371    0.546    0.256    4.223
   44.500  121.855    0.527    0.275    3.891
   44.750  114.526    0.590    0.289    3.709
   45.000  102.797    0.654    0.274    3.915
   45.250   98.989    0.641    0.228    4.246
   45.500   99.581    0.579    0.236    3.966
   45.750  105.454    0.527    0.258    3.938
   46.000  106.046    0.566    0.260    4.100
   46.250  107.518    0.575    0.261    4.538
   46.500  121.019    0.503    0.263    5.091
   46.750  120.438    0.502    0.279    4.723
   47.000  123.671    0.496    0.279    4.473
   47.250  120.156    0.494    0.233    5.946
   47.500  120.161    0.576    0.228    8.931
   47.750  112.832    0.602    0.265    4.290
   48.000  113.131    0.493    0.247    4.437
   48.250  108.737    0.491    0.236    4.436
   48.500  107.861    0.457    0.230    4.876
   48.750  112.561    0.440    0.218    6.706
   49.000  100.538    0.446    0.208    8.329
   49.250   93.503    0.470    0.208    9.933
   49.500   68.278    0.339    0.087   16.973
   49.750   77.964    0.341    0.132    8.906
   50.000   96.160    0.413    0.200    9.024
   50.250  108.193    0.441    0.223    9.207
   50.500   90.597    0.428    0.241    8.837
   50.750   95.590    0.439    0.249   13.184
   51.000   87.967    0.466    0.246   17.289
   51.250   68.903    0.438    0.257   17.759
   51.500   68.615    0.394    0.279   18.119
   51.750   48.378    0.412    0.289   19.917
   52.000   39.582    0.400    0.299   20.599
   52.250   36.947    0.396    0.314   60.985
   52.500   24.338    0.383    0.316  100.047
   52.750   28.451    0.397    0.297   62.199
   53.000   26.696    0.388    0.270   66.998
   53.250   33.156    0.365    0.292   35.393
   53.500   24.654    0.354    0.289   75.655
   53.750   31.406    0.361    0.297   49.995
   54.000   39.040    0.397    0.295   33.948
   54.250   42.859    0.446    0.299   22.132
   54.500   35.531    0.437    0.290   25.512
   54.750   37.002    0.406    0.290   24.992
   55.000   35.248    0.416    0.290   22.261
   55.250   40.534    0.381    0.309   30.202
   55.500   44.940    0.374    0.313   27.455
   55.750   43.774    0.415    0.301   20.781
   56.000   54.046    0.392    0.297   20.634
   56.250   46.424    0.384    0.300   22.530
   56.500   37.921    0.396    0.292   22.371
   56.750   41.448    0.434    0.298   21.038
   57.000   38.226    0.418    0.301   23.926
   57.250   35.885    0.418    0.297   22.501
   57.500   41.171    0.431    0.296   20.180
   57.750   47.630    0.436    0.295   18.850
   58.000   58.491    0.438    0.301   10.950
   58.250   59.670    0.405    0.291   14.556
   58.500   60.849    0.433    0.284   11.092
   58.750   56.454    0.414    0.297   14.746
   59.000   46.191    0.357    0.285   13.046
   59.250   47.077    0.410    0.265   10.933
   59.500   45.029    0.388    0.284   13.038
   59.750   44.742    0.383    0.291   14.627
   60.000   45.040    0.392    0.301   14.822
   60.250   38.884    0.427    0.304   15.751
   60.500   39.183    0.414    0.308   15.325
   60.750   42.710    0.385    0.288   16.065
   61.000   47.996    0.391    0.285   17.304
   61.250   49.175    0.404    0.278   24.956
   61.500   59.155    0.416    0.266   23.630
   61.750   71.189    0.388    0.191   23.782
   62.000   84.396    0.411    0.188   18.247
   62.250   47.143    0.378    0.277   39.538
   62.500   37.761    0.377    0.294   55.115
   62.750   31.313    0.397    0.305  221.437
   63.000   39.532    0.383    0.298  351.154
   63.250   45.992    0.426    0.286   65.241
   63.500   40.717    0.365    0.292  383.303
   63.750   35.148    0.368    0.303  396.403
   64.000   36.914    0.366    0.271  125.030
   64.250   53.349    0.359    0.266   56.123
   64.500   62.449    0.401    0.272   17.702
   64.750   68.615    0.417    0.278   79.821
   65.000   78.302    0.336    0.269   85.397
   65.250  107.938    0.371    0.258   47.954
   65.500   71.859    0.415    0.279  117.400
   65.750   61.009    0.399    0.273   31.895
   66.000   79.497    0.372    0.289  264.867
   66.250   70.409    0.366    0.282  120.518
   66.500   78.628    0.375    0.271   61.540
   66.750   65.725    0.384    0.281   34.792
   67.000   53.116    0.392    0.280  126.258
   67.250   67.790    0.372    0.295  124.516
   67.500   71.609    0.376    0.292   88.663
   67.750   64.281    0.409    0.296   78.444
   68.000   55.779    0.389    0.289  253.654
   68.250   52.850    0.395    0.288  245.122
   68.500   54.322    0.375    0.289   98.707
   68.750   55.208    0.402    0.270   82.716
   69.000   69.296    0.375    0.288   76.223
   69.250   65.487    0.361    0.289   21.134
   69.500   74.294    0.361    0.242  116.019
   69.750   55.817    0.404    0.248  418.151
   70.000   41.447    0.372    0.286  404.098
   70.250   41.746    0.360    0.291  412.275
   70.500   28.843    0.363    0.303  336.234
   70.750   31.196    0.388    0.302  347.725
   71.000   27.681    0.370    0.301  357.177
   71.250   30.620    0.394    0.303  446.674
   71.500   40.014    0.369    0.301  322.415
   71.750   52.927    0.396    0.257   49.536
   72.000   64.668    0.497    0.265  394.950
   72.250   53.232    0.409    0.315  311.359
   72.500   52.064    0.364    0.293  218.718
   72.750   65.271    0.393    0.272   24.595
   73.000   48.261    0.443    0.286   89.860
   73.250   42.399    0.436    0.306  269.670
   73.500   37.124    0.388    0.316  383.645
   73.750   48.278    0.384    0.311  298.371
   74.000   68.232    0.377    0.308   26.820
   74.250   70.585    0.403    0.247  145.247
   74.500   62.376    0.361    0.276   81.561
   74.750   67.662    0.403    0.260   19.478
   75.000   84.391    0.414    0.244   22.302
   75.250   79.115    0.437    0.279   15.041
   75.500   70.906    0.443    0.311   41.328
   75.750   67.684    0.417    0.313  291.616
   76.000   83.532    0.430    0.264   49.605
   76.250   66.816    0.496    0.272  129.973
   76.500   48.632    0.447    0.310  279.721
   76.750   45.410    0.411    0.308  322.455
   77.000   40.722    0.379    0.300   72.444
   77.250   45.715    0.430    0.319   87.574
   77.500   46.600    0.437    0.330  162.331
   77.750   61.568    0.384    0.309   33.166
   78.000   52.186    0.448    0.291   43.200
   78.250   49.550    0.399    0.309  361.195
   78.500   41.048    0.383    0.313  233.885
   78.750   44.282    0.373    0.317  321.637
   79.000   45.461    0.383    0.323  260.531
   79.250   44.879    0.397    0.331  245.025
   79.500   43.417    0.410    0.327  256.870
   79.750   41.956    0.425    0.326  102.738
   80.000   52.523    0.385    0.323   20.990
   80.250   80.693    0.373    0.273   22.305
   80.500   81.285    0.444    0.238   23.224
   80.750   83.638    0.366    0.241   31.722
   81.000   88.630    0.398    0.239   31.928
   81.250   78.074    0.426    0.224   17.687
   81.500   65.758    0.429    0.244   40.187
   81.750   73.098    0.428    0.284   40.449
   82.000   84.252    0.387    0.239   30.824
   82.250  130.904    0.416    0.184    9.990
   82.500  122.109    0.489    0.190   74.932
   82.750   50.530    0.447    0.249  313.567
   83.000   45.549    0.413    0.311  255.732
   83.250   59.049    0.412    0.310  298.829
   83.500   91.620    0.406    0.256   11.347
   83.750   73.435    0.545    0.264   25.957
   84.000   75.201    0.407    0.278   82.240
   84.250   35.602    0.426    0.300  517.100
   84.500   38.834    0.376    0.301  527.565
   84.750   35.612    0.382    0.314  496.151
   85.000   33.858    0.391    0.320  513.091
   85.250   33.570    0.385    0.315  530.627
   85.500   24.482    0.399    0.318  453.822
   85.750   33.581    0.380    0.319  435.591
   86.000   40.334    0.389    0.307  268.974
   86.250   55.888    0.393    0.291  176.543
   86.500   72.909    0.414    0.246   32.357
   86.750   81.716    0.449    0.249   27.487
