~VERSION INFORMATION
 VERS.                 2.0:   CWLS LOG ASCII STANDARD -VERSION 2.0
 WRAP.                  NO:   ONE LINE PER DEPTH STEP
~WELL INFORMATION BLOCK
#MNEM.UNIT           DATA                    DESCRIPTION OF MNEMONIC
#---------    -------------------            -------------------------------
# Generated from Intellog Unique Number	CN_94_101/WELL/3455
WELL.         16-28-095-10W4                 : Well_name    - WELL
LOC .         AB/16-28-095-10W4/0            : Location     - LOCATION
UWI .         AB/16-28-095-10W400            : Uwi          - UNIQUE WELL ID
ENTR.         JOETTE                         : Entered      - ENTERED BY
SRVC.         SCHLUMBERGER                   : Scn          - SERVICE COMPANY
DATE.         07/29/92                       : Date         - LOG DATE
STRT.M        5                              : top_depth    - START DEPTH
STOP.M        82.5                           : bot_depth    - STOP DEPTH
STEP.M        0.25                           : increment    - STEP LENGTH
 NULL. -999.2500:NULL Value
~CURVE INFORMATION BLOCK
#MNEM UNIT       ERCB CURVE CODE    CURVE DESCRIPTION
#-----------   ------------------   ----------------------------------
DEPT.M        00 001 00 00         : DEPTH        - DEPTH
GR  .API      00 310 00 00         : GR           - GAMMA RAY
ILD .OHMM     00 120 00 00         : RESD         - DEEP RESISTIVITY (DIL)
DPHI.V/V      00 890 00 00         : PHID         - DENSITY POROSITY (SANDSTONE)
NPHI.V/V      00 330 00 00         : PHIN         - NEUTRON POROSITY (SANDSTONE)
~PARAMETER INFORMATION
#MNEM.UNIT           DATA             DESCRIPTION OF MNEMONIC
#---------         -----------     ------------------------------
GL  .M        302.057              : gl           - GROUND LEVEL ELEVATION
EREF.M        302.971              : kb           - ELEVATION OF DEPTH REFERENCE
DATM.M        302.971              : datum        - DATUM ELEVATION
TDD .M        84.7344              : tdd          - TOTAL DEPTH DRILLER
RUN .         ONE                  : Run          - RUN NUMBER
ENG .         BILL                 : Engineer     - RECORDING ENGINEER
WIT .         JIM                  : Witness      - WITNESSED BY
MUD .         GEL                  : Mud_type     - MUD TYPE
MATR.         SANDSTONE            : Logunit      - NEUTRON MATRIX
TMAX.F        62                   : BHT          - MAXIMUM RECORDED TEMPERATURE
BHTD.F        278                  : BHTDEP       - MAXIMUM RECORDED TEMPERATURE
RMT .F        62                   : MDTP         - TEMPERATURE OF MUD
MUDD.LB/G     9.1                  : MWT          - MUD DENSITY
NEUT.         1                    : NEUTRON      - NEUTRON TYPE
RESI.         0                    : RESIST       - RESISTIVITY TYPE
RM  .OHMM     9.23                 : RM           - RESISTIVITY OF MUD
RMC .OHMM     9.23                 : RMC          - RESISTIVITY OF MUD CAKE
RMF .OHMM     9.23                 : RMF          - RESISTIVITY OF MUD FILTRATE
SUFT.F        39.2                 : SUFT         - SURFACE TEMPERATURE
~A  DEPTH       GR     RESD     PHID     PHIN
# ...
   48.500  144.011   13.056    0.090    0.427
   48.750  149.726   12.534    0.097    0.428
   49.000  145.325   11.691    0.102    0.427
   49.250  138.404   11.223    0.048    0.423
   49.500  133.378   11.403    0.075    0.424
   49.750  139.718   11.423    0.082    0.425
   50.000  140.381   11.123    0.104    0.425
   50.250  146.083   10.830    0.110    0.422
   50.500  156.212   11.004    0.118    0.417
   50.750  158.763   11.181    0.127    0.413
   51.000  149.316   11.201    0.133    0.408
   51.250  144.921   11.067    0.118    0.406
   51.500  139.895   11.250    0.125    0.401
   51.750  130.448   11.754    0.130    0.393
   52.000  120.370   12.640    0.140    0.385
   52.250  107.760   12.662    0.124    0.338
   52.500   93.261   11.319    0.128    0.322
   52.750   75.605    8.417    0.144    0.341
   53.000   59.212   22.147    0.151    0.367
   53.250   76.919   27.448    0.117    0.376
   53.500   98.414   24.896    0.104    0.388
   53.750  135.703   16.755    0.090    0.381
   54.000  148.357   14.779    0.074    0.377
   54.250  130.701   15.662    0.067    0.389
   54.500  121.261   17.336    0.113    0.389
   54.750  132.015   17.614    0.128    0.380
   55.000  129.514   18.412    0.156    0.370
   55.250   97.966   21.256    0.205    0.353
   55.500   85.356   32.147    0.219    0.351
   55.750   57.597   41.574    0.237    0.353
   56.000   35.520   58.569    0.257    0.352
   56.250   31.763  116.037    0.261    0.352
   56.500   36.834  130.212    0.260    0.355
   56.750   40.655   85.183    0.256    0.351
   57.000   33.727  115.002    0.257    0.342
   57.250   31.233  136.588    0.260    0.332
   57.500   31.884  138.782    0.244    0.324
   57.750   32.540  122.357    0.237    0.316
   58.000   32.566  126.099    0.243    0.320
   58.250   27.546  141.504    0.250    0.324
   58.500   25.677  156.622    0.245    0.319
   58.750   23.170  121.478    0.236    0.320
   59.000   23.826  101.192    0.231    0.321
   59.250   27.641   91.744    0.224    0.323
   59.500   28.929   77.515    0.218    0.343
   59.750   28.954   88.228    0.222    0.350
   60.000   28.348  122.543    0.251    0.331
   60.250   26.479  190.663    0.263    0.337
   60.500   23.347  296.652    0.271    0.341
   60.750   19.584  347.369    0.259    0.337
   61.000   22.135  251.082    0.241    0.331
   61.250   25.949  285.781    0.252    0.328
   61.500   29.138  212.419    0.266    0.328
   61.750   24.105  145.066    0.254    0.332
   62.000   21.605  174.757    0.257    0.335
   62.250   25.419  219.776    0.266    0.342
   62.500   29.233  119.503    0.266    0.341
   62.750   28.627   77.109    0.259    0.339
   63.000   34.335   59.833    0.260    0.344
   63.250   50.154   68.072    0.268    0.349
   63.500   55.862   93.215    0.281    0.352
   63.750   47.047  110.711    0.287    0.362
   64.000   36.975  153.771    0.295    0.362
   64.250   31.942  198.950    0.305    0.361
   64.500   23.127  229.681    0.303    0.355
   64.750   21.252  246.998    0.296    0.358
   65.000   19.383  224.035    0.287    0.363
   65.250   26.360  215.073    0.289    0.365
   65.500   25.754  224.916    0.297    0.362
   65.750   21.991  248.728    0.301    0.364
   66.000   18.227  256.335    0.304    0.361
   66.250   20.147  232.503    0.301    0.363
   66.500   20.804  229.628    0.291    0.367
   66.750   23.355  288.782    0.292    0.366
   67.000   27.175  297.613    0.290    0.363
   67.250   25.306  262.505    0.301    0.363
   67.500   25.963  266.722    0.311    0.361
   67.750   25.357  294.960    0.320    0.357
   68.000   21.593  287.208    0.310    0.357
   68.250   22.256  256.835    0.311    0.355
   68.500   22.901  236.183    0.316    0.355
   68.750   22.932  205.297    0.307    0.358
   69.000   22.326  178.450    0.296    0.363
   69.250   22.352  144.428    0.300    0.358
   69.500   23.015  115.295    0.299    0.351
   69.750   23.027  125.760    0.292    0.346
   70.000   23.684  160.417    0.273    0.350
   70.250   24.972  154.000    0.250    0.359
   70.500   28.155  130.059    0.235    0.370
   70.750   41.441  191.193    0.223    0.368
   71.000   71.790  230.425    0.248    0.359
   71.250   68.020  244.307    0.251    0.350
   71.500   61.099  176.587    0.235    0.354
   71.750   52.284  149.135    0.188    0.359
   72.000   66.833  135.270    0.185    0.363
   72.250   68.753  154.031    0.207    0.366
   72.500   61.832  158.742    0.216    0.373
   72.750   83.959  150.245    0.228    0.388
   73.000  124.404  146.296    0.216    0.372
   73.250  127.587  134.532    0.206    0.372
   73.500   72.037   59.153    0.217    0.370
   73.750   99.853   64.494    0.231    0.366
   74.000  111.876   92.157    0.203    0.364
   74.250   68.324  115.846    0.227    0.368
   74.500   49.405  114.464    0.245    0.374
   74.750   43.116  100.873    0.267    0.384
   75.000   84.193   17.119    0.268    0.396
   75.250  104.425   10.432    0.118    0.405
   75.500  125.920   10.909    0.001    0.408
   75.750  132.267   10.325   -0.009    0.398
   76.000  134.818    8.971   -0.014    0.390
   76.250  129.785    9.648   -0.013    0.388
   76.500  126.653   10.831   -0.004    0.383
   76.750  129.842   11.988    0.003    0.381
   77.000  124.816   12.181    0.005    0.390
   77.250  119.789   10.888   -0.001    0.401
   77.500  117.920   10.017   -0.013    0.409
   77.750  126.786   10.043    0.002    0.413
   78.000  145.755    9.910    0.021    0.413
   78.250  147.681    9.936    0.029    0.411
   78.500  143.912    9.949    0.031    0.409
   78.750  150.883   10.109    0.040    0.407
   79.000  151.540   10.127    0.047    0.402
   79.250  144.619   10.140    0.032    0.394
   79.500  135.172   10.450    0.015    0.384
   79.750  126.989   11.398    0.010    0.362
   80.000  120.699   13.159    0.026    0.338
   80.250  108.727   16.549    0.007    0.337
   80.500   94.853   15.670   -0.008    0.360
   80.750  106.883   14.825   -0.000    0.364
   81.000  117.012   14.232    0.003    0.360
   81.250  122.089   13.858    0.007    0.372
   81.500  124.008   13.888    0.013    0.384
   81.750  122.777   13.906    0.022    0.388
   82.000  122.171   14.130    0.022    0.388
   82.250  122.196   14.562    0.017    0.388
   82.500  122.222   15.007    0.005    0.386
