~VERSION INFORMATION
 VERS.                 2.0:   CWLS LOG ASCII STANDARD -VERSION 2.0
 WRAP.                  NO:   ONE LINE PER DEPTH STEP
~WELL INFORMATION BLOCK
#MNEM.UNIT           DATA                    DESCRIPTION OF MNEMONIC
#---------    -------------------            -------------------------------
# Generated from Intellog Unique Number	CC_84_87/WELL/2335
NULL.         -999.25                        : NULL_VALUE
WELL.         SUNCOR CHEECHAM                : Well_name    - WELL
LOC .         11-32-084-06W4                 : Location     - LOCATION          
UWI .         AB/11-32-084-06W4/0            : Uwi          - UNIQUE WELL ID    
ENTR.         DW                             : Entered      - ENTERED BY        
SRVC.         SCHLUMBERGER                   : Scn          - SERVICE COMPANY   
DATE.         08 mar 82                      : Date         - LOG DATE
STRT.M        125                            : top_depth    - START DEPTH       
STOP.M        310.099                        : bot_depth    - STOP DEPTH        
STEP.M        0.3                            : increment    - STEP LENGTH       
~CURVE INFORMATION BLOCK
#MNEM UNIT       ERCB CURVE CODE    CURVE DESCRIPTION
#-----------   ------------------   ----------------------------------
DEPT.M        00 001 00 00         : DEPTH        - DEPTH                       
DPHI.V/V      00 890 00 00         : PHID         - DENSITY POROSITY (LIMESTONE)
NPHI.V/V      00 330 00 00         : PHIN         - NEUTRON POROSITY (LIMESTONE)
GR  .API      00 310 00 00         : GR           - GAMMA RAY                   
ILD .OHMM     00 120 00 00         : RESD         - DEEP RESISTIVITY (DIL)      
~PARAMETER INFORMATION       
#MNEM.UNIT           DATA             DESCRIPTION OF MNEMONIC
#---------         -----------     ------------------------------
GL  .M        486.3                : gl           - GROUND LEVEL ELEVATION      
EREF.M        489.4                : kb           - ELEVATION OF DEPTH REFERENCE
DATM.M        489.4                : datum        - DATUM ELEVATION             
TDD .M        314                  : tdd          - TOTAL DEPTH DRILLER         
RUN .         ONE                  : Run          - RUN NUMBER                  
ENG .         BILL                 : Engineer     - RECORDING ENGINEER          
WIT .         JIM                  : Witness      - WITNESSED BY                
MUD .         GEL                  : Mud_type     - MUD TYPE                    
MATR.         LIMESTONE            : Logunit      - NEUTRON MATRIX              
TMAX.C        20                   : BHT          - MAXIMUM RECORDED TEMPERATURE
BHTD.M        314                  : BHTDEP       - MAXIMUM RECORDED TEMPERATURE
MATR.         1                    : LOGUNIT      - NEUTRON MATRIX              
RMT .C        25                   : MDTP         - TEMPERATURE OF MUD          
NEUT.         1                    : NEUTRON      - NEUTRON TYPE                
RESI.         0                    : RESIST       - RESISTIVITY TYPE            
RMC .OHMM     0.25                 : RMC          - RESISTIVITY OF MUD CAKE     
RMF .OHMM     0.25                 : RMF          - RESISTIVITY OF MUD FILTRATE 
SUFT.C        15                   : SUFT         - SURFACE TEMPERATURE         
~A  DEPTH     PHID     PHIN       GR     RESD
  125.000    0.289    0.419   63.841    8.046
  125.300    0.278    0.432   66.241    7.899
  125.600    0.310    0.449   71.653    7.336
  125.900    0.311    0.442   89.714    6.940
  126.200    0.257    0.484   98.137    6.565
  126.500    0.238    0.468   92.102    6.095
  126.800    0.251    0.456   92.097    5.453
  127.100    0.265    0.478   94.496    5.159
  127.400    0.272    0.494   89.067    5.065
  127.700    0.258    0.503   84.843    4.973
  128.000    0.247    0.466   90.857    4.975
  128.300    0.257    0.502   89.642    4.977
  128.600    0.277    0.478   83.010    5.167
  128.900    0.304    0.484   84.807    5.266
  129.200    0.308    0.510   92.628    5.170
  129.500    0.287    0.512   96.834    4.541
  129.800    0.321    0.525   97.429    4.216
  130.100    0.333    0.558   95.010    4.063
  130.400    0.354    0.512   90.786    4.065
  130.700    0.365    0.543   86.562    4.066
  131.000    0.316    0.574   85.951    4.144
  131.300    0.309    0.565   88.352    4.069
  131.600    0.342    0.567   88.946    4.070
  131.900    0.398    0.550   88.335    3.851
  132.200    0.413    0.548   89.531    3.780
  132.500    0.407    0.591   90.726    3.712
  132.800    0.360    0.604   94.331    3.783
  133.100    0.269    0.510   88.300    4.002
  133.400    0.269    0.507   79.256    4.394
  133.700    0.288    0.466   74.429    4.824
  134.000    0.305    0.447   72.012    5.008
  134.300    0.313    0.464   70.797    4.827
  134.600    0.299    0.497   84.642    4.652
  134.900    0.263    0.500  100.293    4.320
  135.200    0.252    0.514  103.296    4.241
  135.500    0.260    0.476   96.058    4.088
  135.800    0.308    0.500   91.232    3.940
  136.100    0.382    0.573   87.609    3.591
  136.400    0.399    0.587   89.406    3.212
  136.700    0.362    0.574   90.604    2.983
  137.000    0.382    0.562   83.970    2.719
  137.300    0.447    0.562   82.155    2.620
  137.600    0.460    0.579   77.326    2.479
  137.900    0.482    0.596   76.717    2.389
  138.200    0.512    0.608   79.719    2.302
  138.500    0.315    0.597   82.118    2.346
  138.800    0.280    0.549   82.713    2.528
  139.100    0.276    0.532   85.114    2.936
  139.400    0.277    0.561   87.512    3.163
  139.700    0.272    0.572   83.889    3.285
  140.000    0.261    0.509   80.871    3.286
  140.300    0.251    0.444   86.283    3.226
  140.600    0.250    0.412   91.092    3.052
  140.900    0.255    0.468   81.447    2.941
  141.200    0.297    0.490   63.972    2.681
  141.500    0.313    0.481   57.940    2.354
  141.800    0.314    0.468   54.319    2.186
  142.100    0.311    0.458   53.706    2.068
  142.400    0.304    0.449   56.106    2.030
  142.700    0.307    0.438   61.520    2.069
  143.000    0.302    0.444   57.293    2.109
  143.300    0.295    0.462   54.275    2.149
  143.600    0.305    0.451   58.482    2.190
  143.900    0.313    0.438   66.303    2.191
  144.200    0.316    0.455   69.907    2.112
  144.500    0.315    0.444   68.693    2.073
  144.800    0.318    0.458   63.868    2.036
  145.100    0.312    0.468   60.245    1.999
  145.400    0.225    0.466   56.623    2.114
  145.700    0.160    0.489   51.797    2.236
  146.000    0.276    0.315   45.163    2.366
  146.300    0.307    0.384   55.993    2.456
  146.600    0.319    0.450   60.202    2.412
  146.900    0.315    0.437   59.592    2.458
  147.200    0.310    0.359   52.958    2.552
  147.500    0.311    0.437   57.765    2.855
  147.800    0.312    0.462   55.950    3.193
  148.100    0.316    0.462   52.930    3.315
  148.400    0.317    0.447   52.317    3.316
  148.700    0.317    0.443   52.307    3.196
  149.000    0.317    0.473   52.302    2.859
  149.300    0.317    0.489   54.702    2.558
  149.600    0.305    0.468   55.899    2.205
  149.900    0.294    0.455   58.300    2.165
  150.200    0.302    0.458   63.711    2.206
  150.500    0.304    0.467   66.714    2.248
  150.800    0.302    0.444   68.508    2.335
  151.100    0.308    0.438   70.307    2.379
  151.400    0.304    0.476   69.697    2.251
  151.700    0.294    0.496   67.279    2.170
  152.000    0.297    0.448   66.069    2.170
  152.300    0.299    0.430   65.453    2.130
  152.600    0.298    0.460   66.650    2.212
  152.900    0.293    0.454   68.450    2.255
  153.200    0.290    0.455   67.235    2.298
  153.500    0.296    0.434   65.423    2.298
  153.800    0.307    0.441   62.400    2.257
  154.100    0.293    0.455   62.996    2.216
  154.400    0.301    0.463   66.600    2.096
  154.700    0.311    0.501   64.783    2.058
  155.000    0.302    0.475   62.366    2.098
  155.300    0.287    0.437   58.744    2.219
  155.600    0.285    0.431   56.926    2.261
  155.900    0.287    0.426   58.726    2.392
  156.200    0.290    0.419   58.115    2.438
  156.500    0.283    0.418   61.720    2.394
  156.800    0.268    0.431   65.927    2.439
  157.100    0.240    0.448   67.726    2.580
  157.400    0.000    0.472   64.705    3.227
  157.700    0.000    0.362   55.663    3.962
  158.000    0.000    0.138   42.404    5.240
  158.300    0.050    0.138   36.373    5.647
  158.600    0.144    0.217   44.795    5.342
  158.900    0.192    0.296   57.436    4.274
  159.200    0.261    0.376   65.255    3.484
  159.500    0.278    0.438   67.054    2.736
  159.800    0.288    0.448   62.827    2.402
  160.100    0.286    0.445   60.413    2.272
  160.400    0.290    0.441   64.615    2.231
  160.700    0.299    0.450   64.008    2.274
  161.000    0.301    0.467   71.830    2.406
  161.300    0.290    0.444   68.807    2.498
  161.600    0.295    0.438   66.992    2.545
  161.900    0.284    0.433   69.990    2.693
  162.200    0.271    0.423   71.190    2.902
  162.500    0.271    0.447   75.400    3.070
  162.800    0.290    0.469   86.834    3.187
  163.100    0.287    0.497   91.039    3.434
  163.400    0.249    0.527   88.623    3.701
  163.700    0.233    0.475   85.604    3.843
  164.000    0.238    0.486   83.182    3.990
  164.300    0.285    0.503   82.574    3.845
  164.600    0.333    0.470   81.361    3.505
  164.900    0.392    0.502   81.954    3.378
  165.200    0.299    0.547   87.363    3.256
  165.500    0.278    0.526   89.763    3.317
  165.800    0.282    0.538   89.759    3.781
  166.100    0.286    0.513   86.739    4.556
  166.400    0.265    0.474   85.525    4.910
  166.700    0.209    0.442   84.914    4.911
  167.000    0.209    0.440   81.291    4.646
  167.300    0.307    0.449   80.681    4.234
  167.600    0.368    0.491   80.672    3.650
  167.900    0.387    0.560   80.663    3.327
  168.200    0.397    0.588   93.302    3.206
  168.500    0.399    0.603   98.110    2.977
  168.800    0.373    0.594   93.284    2.713
  169.100    0.385    0.566   89.057    2.520
  169.400    0.422    0.553   86.640    2.474
  169.700    0.447    0.590   84.223    2.521
  170.000    0.443    0.611   86.022    2.768
  170.300    0.294    0.623   88.421    3.398
  170.600    0.304    0.522   89.013    4.250
  170.900    0.308    0.531   87.801    5.217
  171.200    0.277    0.539   86.590    5.945
  171.500    0.187    0.445   80.558    7.033
  171.800    0.190    0.427   79.342    7.167
  172.100    0.276    0.449   81.745    7.170
  172.400    0.300    0.490   84.745    7.040
  172.700    0.291    0.521   85.341    7.174
  173.000    0.252    0.482   88.341    7.450
  173.300    0.246    0.479   91.346    7.879
  173.600    0.242    0.493   94.350    8.335
  173.900    0.250    0.469   94.944    8.494
  174.201    0.271    0.413   87.705    8.497
  174.501    0.302    0.421   86.491    8.989
  174.801    0.314    0.460   88.292    9.332
  175.101    0.240    0.472   91.897   10.246
  175.401    0.223    0.422   93.695   10.838
  175.701    0.220    0.406   93.084   11.681
  176.001    0.188    0.428   93.677   11.905
  176.301    0.193    0.434   87.645   11.688
  176.601    0.222    0.440   91.853   11.265
  176.901    0.250    0.459   96.059   10.077
