~VERSION INFORMATION
 VERS.                 2.0:   CWLS LOG ASCII STANDARD -VERSION 2.0
 WRAP.                  NO:   ONE LINE PER DEPTH STEP
~WELL INFORMATION BLOCK
#MNEM.UNIT           DATA                    DESCRIPTION OF MNEMONIC
#---------    -------------------            -------------------------------
# Generated from Intellog Unique Number	CN_94_101/WELL/1074
WELL.         11-15-094-08W4                 : Well_name    - WELL
LOC .         AB/11-15-094-08W4/0            : Location     - LOCATION
UWI .         AB/11-15-094-08W400            : Uwi          - UNIQUE WELL ID
ENTR.         JOETTE                         : Entered      - ENTERED BY
SRVC.         SCHLUMBERGER                   : Scn          - SERVICE COMPANY
DATE.         04/22/92                       : Date         - LOG DATE
STRT.M        12                             : top_depth    - START DEPTH
STOP.M        140                            : bot_depth    - STOP DEPTH
STEP.M        0.25                           : increment    - STEP LENGTH
 NULL. -999.2500:NULL Value
~CURVE INFORMATION BLOCK
#MNEM UNIT       ERCB CURVE CODE    CURVE DESCRIPTION
#-----------   ------------------   ----------------------------------
DEPT.M        00 001 00 00         : DEPTH        - DEPTH
DPHI.V/V      00 890 00 00         : PHID         - DENSITY POROSITY (SANDSTONE)
NPHI.V/V      00 330 00 00         : PHIN         - NEUTRON POROSITY (SANDSTONE)
CALI.MM       00 280 01 00         : CAL          - CALIPER
ILD .OHMM     00 120 00 00         : RESD         - DEEP RESISTIVITY (DIL)
GR  .API      00 310 00 00         : GR           - GAMMA RAY
~PARAMETER INFORMATION
#MNEM.UNIT           DATA             DESCRIPTION OF MNEMONIC
#---------         -----------     ------------------------------
GL  .M        396.83               : gl           - GROUND LEVEL ELEVATION
EREF.M        396.83               : kb           - ELEVATION OF DEPTH REFERENCE
DATM.M        396.83               : datum        - DATUM ELEVATION
TDD .M        145.2                : tdd          - TOTAL DEPTH DRILLER
RUN .         ONE                  : Run          - RUN NUMBER
ENG .         BILL                 : Engineer     - RECORDING ENGINEER
WIT .         JIM                  : Witness      - WITNESSED BY
MUD .         GEL                  : Mud_type     - MUD TYPE
MATR.         SANDSTONE            : Logunit      - NEUTRON MATRIX
TMAX.C        6                    : BHT          - MAXIMUM RECORDED TEMPERATURE
BHTD.M        145.2                : BHTDEP       - MAXIMUM RECORDED TEMPERATURE
RMT .C        6                    : MDTP         - TEMPERATURE OF MUD
MUDD.KG/M     1050                 : MWT          - MUD DENSITY
NEUT.         1                    : NEUTRON      - NEUTRON TYPE
RESI.         0                    : RESIST       - RESISTIVITY TYPE
RM  .OHMM     17                   : RM           - RESISTIVITY OF MUD
RMC .OHMM     17                   : RMC          - RESISTIVITY OF MUD CAKE
RMF .OHMM     17                   : RMF          - RESISTIVITY OF MUD FILTRATE
SUFT.C        4                    : SUFT         - SURFACE TEMPERATURE
~A  DEPTH     PHID     PHIN      CAL     RESD       GR
# ...
   85.000    0.305    0.342  137.845  118.786   39.143
   85.250    0.325    0.401  139.482  229.166   36.613
   85.500    0.331    0.382  139.522  450.766   35.872
   85.750    0.333    0.413  137.963  384.915   36.407
   86.000    0.342    0.415  139.605  414.974   36.941
   86.250    0.303    0.381  137.647  465.060   37.475
   86.500    0.296    0.402  140.278  382.246   38.010
   86.750    0.296    0.421  139.119  695.792   41.012
   87.000    0.322    0.413  140.362  480.086   45.886
   87.250    0.333    0.416  140.001  130.600   50.718
   87.500    0.323    0.351  138.437  330.484   53.741
   87.750    0.300    0.340  136.479  349.455   59.211
   88.000    0.297    0.400  139.120  132.156   65.319
   88.250    0.313    0.425  138.765  104.493   75.724
   88.500    0.320    0.401  137.805   82.573   66.367
   88.750    0.323    0.409  138.444   70.551   60.114
   89.000    0.341    0.455  140.681   76.061   51.374
   89.250    0.345    0.438  140.720  174.697   64.885
   89.500    0.351    0.369  140.759  192.025   73.440
   89.750    0.357    0.436  140.000   76.966   56.658
   90.000    0.321    0.468  138.246   64.499   51.661
   90.250    0.282    0.387  140.283   76.610   42.282
   90.500    0.226    0.362  140.317  100.254   39.136
   90.750    0.201    0.361  139.562  159.248   34.672
   91.000    0.206    0.414  139.197  189.262   32.163
   91.250    0.233    0.396  136.644  706.056   27.762
   91.500    0.232    0.423  138.481  579.990   28.296
   91.750    0.220    0.435  139.520  392.504   32.532
   92.000    0.232    0.432  139.164  376.708   39.853
   92.250    0.242    0.381  137.600  522.174   48.408
   92.500    0.242    0.434  138.439  114.846   64.387
   92.750    0.258    0.400  139.881   53.751   96.407
   93.000    0.255    0.367  137.723   37.109  102.515
   93.250    0.244    0.341  137.762   29.307  104.879
   93.500    0.245    0.353  137.597   29.239   97.393
   93.750    0.250    0.389  136.437   28.063   92.992
   94.000    0.268    0.425  136.681   26.933   93.526
   94.250    0.278    0.404  138.524   25.834   84.169
   94.500    0.258    0.385  139.357   27.333   77.896
   94.750    0.270    0.377  138.797   33.749   83.366
   95.000    0.288    0.362  138.442   37.075   89.474
   95.250    0.269    0.379  138.276   36.237   84.435
   95.500    0.259    0.388  136.727   35.480   78.183
   95.750    0.261    0.391  137.556   35.439   74.357
   96.000    0.263    0.363  137.804   38.206   73.040
   96.250    0.246    0.379  137.439   41.971   73.575
   96.500    0.244    0.400  137.279   41.874   74.747
   96.750    0.248    0.380  137.318   41.777   78.366
   97.000    0.248    0.397  137.557   40.857   81.985
   97.250    0.239    0.382  139.210   39.212   86.221
   97.500    0.243    0.378  138.440   37.634   86.756
   97.750    0.246    0.362  137.875   36.141   86.673
   98.000    0.247    0.406  137.924   33.981   85.336
   98.250    0.252    0.416  137.364   33.271   84.636
   98.500    0.241    0.422  135.605   32.519   87.618
   98.750    0.234    0.442  138.037   31.840   90.024
   99.000    0.242    0.408  136.078   31.174   94.898
   99.250    0.239    0.382  136.527   31.066   98.517
   99.500    0.230    0.367  137.955   30.976   95.308
   99.750    0.235    0.404  139.797   30.346   95.226
  100.000    0.240    0.423  140.041   28.533   96.397
  100.250    0.238    0.449  140.041   27.953   92.572
  100.500    0.224    0.422  140.334   28.974   88.808
  100.750    0.237    0.403  140.758   31.236   84.407
  101.000    0.285    0.437  141.002   34.334   81.836
  101.250    0.289    0.396  141.037   34.235   86.072
  101.500    0.262    0.397  139.273   32.857   81.671
  101.750    0.246    0.394  137.314   32.152   74.781
  102.000    0.248    0.386  138.158   34.683   67.295
  102.250    0.253    0.381  139.196   42.824   59.809
  102.500    0.237    0.400  136.838   54.965   68.343
  102.750    0.238    0.365  135.478   62.804   71.983
  103.000    0.248    0.326  136.921   54.710   84.856
  103.250    0.244    0.404  138.554   29.900   92.198
  103.500    0.244    0.379  138.403   30.414   90.264
  103.750    0.271    0.391  137.439   30.937   83.971
  104.000    0.274    0.418  137.273   32.713   86.377
  104.250    0.273    0.404  136.913   38.110   94.932
  104.500    0.256    0.362  137.556   39.525   93.595
  104.750    0.254    0.449  137.206   26.235   91.065
  105.000    0.249    0.417  138.639   30.545   88.514
  105.250    0.245    0.451  139.872   32.950   81.625
  105.500    0.242    0.431  138.713   33.516   80.288
  105.750    0.228    0.442  138.552   33.439   78.992
  106.000    0.227    0.447  138.996   30.280   75.187
  106.250    0.243    0.413  138.635   29.062   76.955
  106.500    0.262    0.404  138.275   34.499   85.510
  106.750    0.293    0.384  137.325   35.800   90.980
  107.000    0.282    0.390  136.556   33.015   89.046
  107.250    0.278    0.394  135.995   35.593   82.794
  107.500    0.268    0.405  136.434   37.658   63.566
  107.750    0.288    0.470  137.478   45.605   58.527
  108.000    0.315    0.497  138.311   64.527   64.614
  108.250    0.296    0.516  137.766  117.388   70.084
  108.500    0.282    0.412  137.600   59.403   71.852
  108.750    0.275    0.453  137.839   51.748   60.047
  109.000    0.252    0.464  138.074   51.628   54.391
  109.250    0.259    0.470  138.074   56.749   49.373
  109.500    0.261    0.417  138.367   67.405   55.460
  109.750    0.243    0.402  138.995   77.019   65.249
  110.000    0.236    0.411  139.035   55.242   70.719
  110.250    0.259    0.416  138.874   41.164   70.636
  110.500    0.267    0.388  138.714   59.417   64.384
  110.750    0.284    0.395  138.753   70.534   72.939
  111.000    0.281    0.446  138.797   53.650   77.154
  111.250    0.267    0.415  138.642   40.001   73.391
  111.500    0.269    0.449  138.476   36.910   65.884
  111.750    0.275    0.456  139.115   39.816   62.696
  112.000    0.280    0.479  139.564   45.468   73.122
  112.250    0.286    0.445  139.203   50.986   79.826
  112.500    0.289    0.419  139.238   52.878   75.425
  112.750    0.291    0.436  139.477   31.245   69.790
  113.000    0.285    0.396  139.516   34.976   65.347
  113.250    0.271    0.448  139.555   36.316   62.797
  113.500    0.262    0.402  138.800   37.663   63.969
  113.750    0.257    0.421  138.040   38.312   68.822
  114.000    0.256    0.413  138.075   38.223   79.248
  114.250    0.270    0.432  138.119   32.639   90.250
  114.500    0.270    0.397  138.158   28.433   86.487
  114.750    0.273    0.361  135.990   28.905   78.363
  115.000    0.282    0.413  135.440   31.180   73.345
  115.250    0.293    0.430  136.678   33.615   67.689
  115.500    0.318    0.392  137.521   32.263   67.606
  115.750    0.309    0.364  136.556   32.151   53.292
  116.000    0.284    0.343  135.991   34.661   49.529
  116.250    0.257    0.384  135.841   37.390   66.721
  116.500    0.229    0.401  135.670   44.411   74.063
  116.750    0.229    0.417  136.314   49.771   82.617
  117.000    0.226    0.416  138.351   37.130   89.938
  117.250    0.224    0.381  140.189   31.706   98.514
  117.500    0.224    0.382  140.038   28.695  108.282
  117.750    0.213    0.423  141.276   25.985  107.603
  118.000    0.218    0.414  140.516   24.924  106.286
  118.250    0.218    0.411  141.949   26.871  106.163
  118.500    0.221    0.383  137.593   30.132  103.633
  118.750    0.231    0.420  137.832   28.348  102.316
  119.000    0.240    0.398  139.075   26.188  100.383
  119.250    0.256    0.389  137.121   29.331   97.812
  119.500    0.259    0.386  138.559   31.640   93.411
  119.750    0.306    0.468  138.389   31.549   90.860
  120.000    0.294    0.433  134.232   32.681   92.011
  120.250    0.275    0.403  132.483   33.934   90.037
  120.500    0.261    0.325  134.116   38.773   86.273
  120.750    0.247    0.302  134.754   53.808   52.834
  121.000    0.253    0.303  137.201   60.233   49.029
  121.250    0.260    0.279  135.233   66.284   46.478
