~VERSION INFORMATION
 VERS.                 2.0:   CWLS LOG ASCII STANDARD -VERSION 2.0
 WRAP.                  NO:   ONE LINE PER DEPTH STEP
~WELL INFORMATION BLOCK
#MNEM.UNIT           DATA                    DESCRIPTION OF MNEMONIC
#---------    -------------------            -------------------------------
# Generated from Intellog Unique Number	CN_94_101/WELL/1077
WELL.         SYNCRUDE CANADA LTD.           : Well_name    - WELL
LOC .         AB/12-06-094-11W4/0            : Location     - LOCATION
UWI .         AB/12-06-094-11W400            : Uwi          - UNIQUE WELL ID
ENTR.         JOETTE                         : Entered      - ENTERED BY
SRVC.         SCHLUMBERGER                   : Scn          - SERVICE COMPANY
DATE.         03/16/92                       : Date         - LOG DATE
STRT.M        22                             : top_depth    - START DEPTH
STOP.M        92                             : bot_depth    - STOP DEPTH
STEP.M        0.25                           : increment    - STEP LENGTH
 NULL. -999.2500:NULL Value
~CURVE INFORMATION BLOCK
#MNEM UNIT       ERCB CURVE CODE    CURVE DESCRIPTION
#-----------   ------------------   ----------------------------------
DEPT.M        00 001 00 00         : DEPTH        - DEPTH
ILD .OHMM     00 120 00 00         : RESD         - DEEP RESISTIVITY (DIL)
DPHI.V/V      00 890 00 00         : PHID         - DENSITY POROSITY (SANDSTONE)
NPHI.V/V      00 330 00 00         : PHIN         - NEUTRON POROSITY (SANDSTONE)
GR  .API      00 310 00 00         : GR           - GAMMA RAY
~PARAMETER INFORMATION
#MNEM.UNIT           DATA             DESCRIPTION OF MNEMONIC
#---------         -----------     ------------------------------
GL  .M        327.6                : gl           - GROUND LEVEL ELEVATION
EREF.M        327.6                : kb           - ELEVATION OF DEPTH REFERENCE
DATM.M        327.6                : datum        - DATUM ELEVATION
TDD .M        95.5                 : tdd          - TOTAL DEPTH DRILLER
RUN .         ONE                  : Run          - RUN NUMBER
ENG .         BILL                 : Engineer     - RECORDING ENGINEER
WIT .         JIM                  : Witness      - WITNESSED BY
MUD .         GEL                  : Mud_type     - MUD TYPE
MATR.         SANDSTONE            : Logunit      - NEUTRON MATRIX
TMAX.C        5                    : BHT          - MAXIMUM RECORDED TEMPERATURE
BHTD.M        95.5                 : BHTDEP       - MAXIMUM RECORDED TEMPERATURE
RMT .C        40                   : MDTP         - TEMPERATURE OF MUD
MUDD.KG/M     1030                 : MWT          - MUD DENSITY
NEUT.         1                    : NEUTRON      - NEUTRON TYPE
RESI.         0                    : RESIST       - RESISTIVITY TYPE
RM  .OHMM     3.6                  : RM           - RESISTIVITY OF MUD
RMC .OHMM     3.6                  : RMC          - RESISTIVITY OF MUD CAKE
RMF .OHMM     3.6                  : RMF          - RESISTIVITY OF MUD FILTRATE
SUFT.C        4                    : SUFT         - SURFACE TEMPERATURE
~A  DEPTH     RESD     PHID     PHIN       GR
# ...
   65.500    4.990    0.194    0.409   84.377
   65.750    6.421    0.205    0.436   81.048
   66.000    6.791    0.242    0.456   72.593
   66.250    9.707    0.237    0.452   81.023
   66.500    5.581    0.203    0.463   88.548
   66.750    7.595    0.212    0.417   87.329
   67.000    6.155    0.185    0.435   91.238
   67.250    5.130    0.143    0.414  108.410
   67.500    5.541    0.156    0.403   99.052
   67.750    5.312    0.151    0.473  108.388
   68.000    5.058    0.201    0.543  118.325
   68.250    5.129    0.200    0.489   77.306
   68.500    5.386    0.189    0.530  123.123
   68.750    4.715    0.225    0.468  108.638
   69.000    6.599    0.222    0.444   82.997
   69.250    5.128    0.198    0.437   82.983
   69.500    5.736    0.153    0.433   92.620
   69.750    4.584    0.168    0.452  112.810
   70.000    6.151    0.183    0.409   92.898
   70.250    5.981    0.187    0.430   87.759
   70.500    5.815    0.175    0.414   98.301
   70.750    5.897    0.191    0.404  107.032
   71.000    6.459    0.202    0.417   69.330
   71.250    8.608    0.209    0.428   69.014
   71.500   11.392    0.254    0.462   57.545
   71.750   14.867    0.265    0.464   59.341
   72.000   15.504    0.274    0.446   60.837
   72.250   22.162    0.249    0.433   50.874
   72.500   34.217    0.264    0.394   53.575
   72.750   39.362    0.265    0.411   42.406
   73.000   29.326    0.245    0.393   58.375
   73.250   12.215    0.192    0.401   91.228
   73.500    5.691    0.158    0.475  115.338
   73.750    7.855    0.193    0.458   97.837
   74.000    9.228    0.200    0.402   81.844
   74.250   10.107    0.205    0.424   79.118
   74.500    8.483    0.211    0.403   81.819
   74.750    8.076    0.221    0.405   93.868
   75.000    7.069    0.192    0.434   92.047
   75.250    7.020    0.186    0.404   97.160
   75.500    9.097    0.184    0.396   98.353
   75.750    7.635    0.218    0.453   85.677
   76.000    8.131    0.249    0.422   60.940
   76.250   32.327    0.246    0.363   52.483
   76.500    5.648    0.199    0.463   84.434
   76.750   10.389    0.211    0.376   85.627
   77.000    9.094    0.207    0.431   68.730
   77.250   11.702    0.246    0.433   67.511
   77.500   25.113    0.230    0.393   56.945
   77.750   10.534    0.248    0.455   59.345
   78.000   19.107    0.280    0.461   59.332
   78.250   30.338    0.259    0.370   52.687
   78.500    6.404    0.149    0.439   78.002
   78.750    4.976    0.152    0.466  121.108
   79.000    8.013    0.243    0.469  114.462
   79.250   12.813    0.209    0.471   89.725
   79.500   10.530    0.196    0.546   89.109
   79.750   22.598    0.306    0.449   67.687
   80.000   10.677    0.240    0.446   70.691
   80.250   11.372    0.201    0.492   98.419
   80.500   22.280    0.246    0.438   83.934
   80.750   14.839    0.248    0.421   59.498
   81.000   96.341    0.270    0.381   55.565
   81.250   65.990    0.252    0.433   58.869
   81.500   14.028    0.235    0.436   63.982
   81.750   19.226    0.217    0.513   63.972
   82.000   37.669    0.288    0.439   59.436
   82.250   49.503    0.242    0.445   56.409
   82.500   11.608    0.193    0.462   76.899
   82.750   14.524    0.221    0.510   86.235
   83.000   23.387    0.264    0.581   85.618
   83.250   30.096    0.291    0.515   67.214
   83.500   28.058    0.281    0.409   52.427
   83.750   16.358    0.247    0.506   61.460
   84.000   69.754    0.256    0.530   69.287
   84.250   52.335    0.321    0.531   48.165
   84.500   66.876    0.329    0.535   43.331
   84.750   73.764    0.315    0.491   45.427
   85.000  128.294    0.286    0.449   39.086
   85.250  100.389    0.296    0.423   30.932
   85.500   23.705    0.284    0.392   29.412
   85.750  124.729    0.279    0.454   41.158
   86.000   84.838    0.288    0.454   35.417
   86.250   51.586    0.310    0.470   33.295
   86.500  161.616    0.287    0.413   32.679
   86.750  195.262    0.292    0.448   26.033
   87.000  126.456    0.283    0.444   39.589
   87.250  165.024    0.290    0.501   35.355
   87.500  124.684    0.293    0.416   31.422
   87.750  175.746    0.299    0.419   35.934
   88.000  122.078    0.289    0.462   44.665
   88.250  168.494    0.303    0.444   33.195
   88.500  185.849    0.279    0.417   25.946
   88.750  106.099    0.278    0.452   30.154
   89.000  191.111    0.284    0.408   34.063
   89.250   92.865    0.307    0.458   27.115
   89.500  145.403    0.306    0.428   26.499
   89.750   61.416    0.297    0.392   21.662
   90.000   92.851    0.253    0.246   28.282
   90.250   10.433    0.176    0.165   33.699
   90.500   26.121    0.144    0.145   45.144
   90.750   31.120    0.136    0.144   45.132
   91.000   32.912    0.175    0.202   43.611
   91.250   16.219    0.228    0.216   53.851
   91.500   13.901    0.198    0.213   62.583
   91.750   17.152    0.198    0.196   50.811
   92.000   11.108    0.204    0.204   47.783
