~VERSION INFORMATION
 VERS.                 2.0:   CWLS LOG ASCII STANDARD -VERSION 2.0
 WRAP.                  NO:   ONE LINE PER DEPTH STEP
~WELL INFORMATION BLOCK
#MNEM.UNIT           DATA                    DESCRIPTION OF MNEMONIC
#---------    -------------------            -------------------------------
# Generated from Intellog Unique Number	CN_94_101/WELL/3246
WELL.         10-18-096-10W4                 : Well_name    - WELL
LOC .         AB/10-18-096-10W4/0            : Location     - LOCATION
UWI .         AB/10-18-096-10W400            : Uwi          - UNIQUE WELL ID
ENTR.         JOETTE                         : Entered      - ENTERED BY
SRVC.         SCHLUMBERGER                   : Scn          - SERVICE COMPANY
DATE.         07/20/92                       : Date         - LOG DATE
STRT.M        0                              : top_depth    - START DEPTH
STOP.M        115.25                         : bot_depth    - STOP DEPTH
STEP.M        0.25                           : increment    - STEP LENGTH
 NULL. -999.2500:NULL Value
~CURVE INFORMATION BLOCK
#MNEM UNIT       ERCB CURVE CODE    CURVE DESCRIPTION
#-----------   ------------------   ----------------------------------
DEPT.M        00 001 00 00         : DEPTH        - DEPTH
ILD .OHMM     00 120 00 00         : RESD         - DEEP RESISTIVITY (DIL)
GR  .API      00 310 00 00         : GR           - GAMMA RAY
NPHI.V/V      00 330 00 00         : PHIN         - NEUTRON POROSITY (SANDSTONE)
DPHI.V/V      00 890 00 00         : PHID         - DENSITY POROSITY (SANDSTONE)
~PARAMETER INFORMATION
#MNEM.UNIT           DATA             DESCRIPTION OF MNEMONIC
#---------         -----------     ------------------------------
GL  .M        0                    : gl           - GROUND LEVEL ELEVATION
EREF.M        0                    : kb           - ELEVATION OF DEPTH REFERENCE
DATM.M        0                    : datum        - DATUM ELEVATION
TDD .M        119.5                : tdd          - TOTAL DEPTH DRILLER
RUN .         ONE                  : Run          - RUN NUMBER
ENG .         BILL                 : Engineer     - RECORDING ENGINEER
WIT .         JIM                  : Witness      - WITNESSED BY
MUD .         GEL                  : Mud_type     - MUD TYPE
MATR.         SANDSTONE            : Logunit      - NEUTRON MATRIX
TMAX.C        0                    : BHT          - MAXIMUM RECORDED TEMPERATURE
BHTD.M        119.5                : BHTDEP       - MAXIMUM RECORDED TEMPERATURE
RMT .C        0                    : MDTP         - TEMPERATURE OF MUD
MUDD.KG/M     0                    : MWT          - MUD DENSITY
NEUT.         1                    : NEUTRON      - NEUTRON TYPE
RESI.         0                    : RESIST       - RESISTIVITY TYPE
RM  .OHMM     1.84                 : RM           - RESISTIVITY OF MUD
RMC .OHMM     1.84                 : RMC          - RESISTIVITY OF MUD CAKE
RMF .OHMM     1.84                 : RMF          - RESISTIVITY OF MUD FILTRATE
SUFT.C        4                    : SUFT         - SURFACE TEMPERATURE
~A  DEPTH     RESD       GR     PHIN     PHID
# ...
   43.500   29.570   47.817    0.432    0.299
   43.750   34.872   52.402    0.425    0.261
   44.000   34.891   68.777    0.425    0.222
   44.250   22.877   82.533    0.444    0.208
   44.500   15.537   94.978    0.494    0.219
   44.750   13.824   98.908    0.488    0.230
   45.000   13.511   91.703    0.462    0.253
   45.250   15.382   71.397    0.443    0.279
   45.500   17.928   67.467    0.435    0.285
   45.750   21.142   46.507    0.451    0.312
   46.000   31.169   53.712    0.435    0.315
   46.250   47.036   57.642    0.429    0.311
   46.500   35.925   51.747    0.435    0.321
   46.750  108.393   39.301    0.440    0.341
   47.000  150.687   36.681    0.428    0.338
   47.250  171.580   33.406    0.411    0.333
   47.500  156.263   25.546    0.411    0.337
   47.750  139.030   31.441    0.417    0.341
   48.000  118.023   49.127    0.421    0.339
   48.250   84.992   61.572    0.413    0.315
   48.500   54.433   68.777    0.412    0.258
   48.750   40.610   74.017    0.429    0.236
   49.000   19.851   78.603    0.438    0.251
   49.250   22.075   68.122    0.448    0.268
   49.500   23.153   47.817    0.458    0.295
   49.750   19.196   34.061    0.470    0.334
   50.000   37.072   41.266    0.436    0.356
   50.250   53.385   39.956    0.422    0.361
   50.500   55.330   37.991    0.433    0.360
   50.750   90.648   46.507    0.451    0.348
   51.000   62.292   45.852    0.457    0.342
   51.250   54.136   43.886    0.447    0.333
   51.500   48.735   40.611    0.444    0.318
   51.750   41.860   36.026    0.444    0.324
   52.000   50.538   35.371    0.437    0.333
   52.250   53.624   40.611    0.435    0.342
   52.500   56.234   54.367    0.457    0.320
   52.750   37.306   65.502    0.480    0.301
   53.000   26.869   67.467    0.455    0.281
   53.250   18.903   66.812    0.443    0.264
   53.500   26.275   49.782    0.460    0.301
   53.750   31.722   28.166    0.437    0.307
   54.000   40.620   32.096    0.415    0.327
   54.250   68.130   37.336    0.402    0.315
   54.500   70.612   40.611    0.422    0.315
   54.750   57.868   40.611    0.423    0.316
   55.000   80.447   46.507    0.427    0.310
   55.250   66.707   62.227    0.433    0.256
   55.500   32.227   77.293    0.440    0.232
   55.750   29.701   99.563    0.459    0.274
   56.000   17.518   60.262    0.424    0.303
   56.250   25.826   35.371    0.417    0.335
   56.500   82.647   34.061    0.434    0.347
   56.750   84.646   31.441    0.440    0.343
   57.000   66.186   28.821    0.441    0.329
   57.250  102.266   28.821    0.410    0.327
   57.500  105.992   27.511    0.400    0.337
   57.750  119.263   26.201    0.393    0.328
   58.000  142.308   22.926    0.365    0.327
   58.250  150.997   23.581    0.376    0.345
   58.500  151.081   26.201    0.381    0.348
   58.750  180.301   24.236    0.373    0.329
   59.000  200.508   23.581    0.376    0.323
   59.250  215.262   17.686    0.398    0.331
   59.500  217.925   17.686    0.406    0.315
   59.750  218.047   23.581    0.370    0.307
   60.000  248.245   23.581    0.386    0.304
   60.250  260.363   22.926    0.388    0.316
   60.500   63.654   22.926    0.399    0.320
   60.750  100.691   24.236    0.403    0.314
   61.000  270.150   28.166    0.384    0.299
   61.250  276.723   21.616    0.362    0.298
   61.500  311.370   17.031    0.362    0.293
   61.750  199.415   18.341    0.376    0.311
   62.000  204.267   20.306    0.391    0.314
   62.250  221.888   31.441    0.396    0.325
   62.500   49.975   52.402    0.416    0.305
   62.750   66.287   17.686    0.417    0.296
   63.000  184.195   18.341    0.387    0.316
   63.250  180.021   22.271    0.362    0.314
   63.500  202.560   20.306    0.381    0.320
   63.750  197.970   16.375    0.383    0.325
   64.000  160.347   18.341    0.365    0.322
   64.250  162.331   17.686    0.361    0.331
   64.500   73.100   20.961    0.381    0.347
   64.750   82.252   22.926    0.402    0.330
   65.000  111.677   21.616    0.412    0.332
   65.250  131.701   17.686    0.394    0.330
   65.500  138.130   15.720    0.389    0.326
   65.750  121.463   14.411    0.389    0.332
   66.000  110.635   16.375    0.379    0.327
   66.250   96.137   19.651    0.385    0.283
   66.500   70.058   15.720    0.385    0.272
   66.750  110.821   20.306    0.378    0.269
   67.000  141.887   22.926    0.372    0.267
   67.250   56.807   20.306    0.369    0.285
   67.500  140.387   15.720    0.373    0.295
   67.750  150.718   15.720    0.372    0.287
   68.000   89.961   14.411    0.367    0.280
   68.250   92.149   13.100    0.368    0.286
   68.500  115.243   11.135    0.385    0.304
   68.750  101.337   13.100    0.380    0.305
   69.000  122.382   18.996    0.368    0.306
   69.250  129.835   23.581    0.376    0.310
   69.500  146.091   22.271    0.381    0.309
   69.750  101.578   18.996    0.373    0.321
   70.000  166.417   21.616    0.371    0.309
   70.250  146.357   28.166    0.380    0.301
   70.500  166.603   36.026    0.375    0.285
   70.750  162.827   31.441    0.357    0.259
   71.000  108.020   26.201    0.334    0.248
   71.250   71.661   26.201    0.333    0.248
   71.500   79.693   23.581    0.334    0.284
   71.750   89.671   17.686    0.341    0.308
   72.000  190.233   29.476    0.343    0.308
   72.250  155.900   64.192    0.370    0.291
   72.500   93.041   85.808    0.507    0.293
   72.750   14.058   73.362    0.497    0.294
   73.000   16.385   62.227    0.435    0.224
   73.250   20.734   51.092    0.400    0.234
   73.500   16.023   41.266    0.384    0.252
   73.750   31.680   36.026    0.374    0.243
   74.000   21.262   46.507    0.364    0.225
   74.250   23.648   70.087    0.350    0.208
   74.500   27.563   77.948    0.367    0.200
   74.750   17.652   79.913    0.364    0.185
   75.000   15.525   84.498    0.359    0.204
   75.250   15.173   74.017    0.362    0.212
   75.500   16.873   68.122    0.347    0.184
   75.750   15.010   70.742    0.347    0.184
   76.000   14.499   67.467    0.403    0.211
   76.250   22.932   44.541    0.344    0.259
   76.500   31.507   31.441    0.327    0.288
   76.750   33.431   27.511    0.307    0.307
   77.000   41.321   25.546    0.284    0.318
   77.250   87.661   20.306    0.334    0.310
   77.500  104.601   15.720    0.359    0.296
   77.750  127.814   12.445    0.354    0.286
   78.000  134.016   10.480    0.359    0.304
   78.250  132.526   11.790    0.361    0.311
   78.500  112.501   18.996    0.375    0.317
   78.750   50.654   23.581    0.385    0.310
   79.000   64.096   22.926    0.358    0.292
   79.250   79.235   19.651    0.377    0.285
   79.500   61.224   22.926    0.405    0.288
   79.750   49.010   26.856    0.410    0.303
   80.000   53.867   22.926    0.412    0.314
   80.250   53.267   25.546    0.395    0.320
   80.500   70.654   26.201    0.397    0.317
   80.750   50.888   26.856    0.416    0.331
   81.000  111.811   15.066    0.396    0.344
   81.250  153.624   17.031    0.391    0.330
   81.500  139.929   17.031    0.383    0.318
   81.750  192.231   22.271    0.389    0.317
   82.000  194.610   20.961    0.397    0.319
   82.250  187.979   15.066    0.385    0.313
   82.500  148.742   21.616    0.383    0.300
   82.750   64.644   44.541    0.420    0.276
   83.000   23.018   32.751    0.425    0.253
   83.250   49.985   22.271    0.378    0.255
   83.500   81.902   13.100    0.364    0.261
   83.750   83.895   13.755    0.339    0.267
   84.000  106.159   15.720    0.355    0.241
   84.250   90.119   20.306    0.352    0.259
   84.500  100.219   22.926    0.367    0.282
   84.750  110.165   20.961    0.369    0.302
   85.000  111.544   19.651    0.363    0.297
   85.250  107.728   17.031    0.362    0.293
   85.500   72.302   15.066    0.356    0.303
   85.750  176.592   14.411    0.360    0.302
   86.000  170.599   17.686    0.359    0.297
   86.250  185.315   19.651    0.346    0.287
   86.500  141.520   17.686    0.346    0.265
   86.750  211.098   20.306    0.332    0.259
