~VERSION INFORMATION
 VERS.                 2.0:   CWLS LOG ASCII STANDARD -VERSION 2.0
 WRAP.                  NO:   ONE LINE PER DEPTH STEP
~WELL INFORMATION BLOCK
#MNEM.UNIT           DATA                    DESCRIPTION OF MNEMONIC
#---------    -------------------            -------------------------------
# Generated from Intellog Unique Number	CN_94_101/WELL/3238
WELL.         13-07-096-09W4                 : Well_name    - WELL
LOC .         AB/13-07-096-09W4/0            : Location     - LOCATION
UWI .         AB/13-07-096-09W400            : Uwi          - UNIQUE WELL ID
ENTR.         JOETTE                         : Entered      - ENTERED BY
SRVC.         SCHLUMBERGER                   : Scn          - SERVICE COMPANY
DATE.         07/20/92                       : Date         - LOG DATE
STRT.M        20                             : top_depth    - START DEPTH
STOP.M        90                             : bot_depth    - STOP DEPTH
STEP.M        0.25                           : increment    - STEP LENGTH
 NULL. -999.2500:NULL Value
~CURVE INFORMATION BLOCK
#MNEM UNIT       ERCB CURVE CODE    CURVE DESCRIPTION
#-----------   ------------------   ----------------------------------
DEPT.M        00 001 00 00         : DEPTH        - DEPTH
GR  .API      00 310 00 00         : GR           - GAMMA RAY
NPHI.V/V      00 330 00 00         : PHIN         - NEUTRON POROSITY (SANDSTONE)
DPHI.V/V      00 890 00 00         : PHID         - DENSITY POROSITY (SANDSTONE)
ILD .OHMM     00 120 00 00         : RESD         - DEEP RESISTIVITY (DIL)
~PARAMETER INFORMATION
#MNEM.UNIT           DATA             DESCRIPTION OF MNEMONIC
#---------         -----------     ------------------------------
GL  .M        300.5                : gl           - GROUND LEVEL ELEVATION
EREF.M        300.5                : kb           - ELEVATION OF DEPTH REFERENCE
DATM.M        300.5                : datum        - DATUM ELEVATION
TDD .M        92.9                 : tdd          - TOTAL DEPTH DRILLER
RUN .         ONE                  : Run          - RUN NUMBER
ENG .         BILL                 : Engineer     - RECORDING ENGINEER
WIT .         JIM                  : Witness      - WITNESSED BY
MUD .         GEL                  : Mud_type     - MUD TYPE
MATR.         SANDSTONE            : Logunit      - NEUTRON MATRIX
TMAX.C        18                   : BHT          - MAXIMUM RECORDED TEMPERATURE
BHTD.M        92.9                 : BHTDEP       - MAXIMUM RECORDED TEMPERATURE
RMT .C        18                   : MDTP         - TEMPERATURE OF MUD
MUDD.KG/M     1020                 : MWT          - MUD DENSITY
NEUT.         1                    : NEUTRON      - NEUTRON TYPE
RESI.         0                    : RESIST       - RESISTIVITY TYPE
RM  .OHMM     6                    : RM           - RESISTIVITY OF MUD
RMC .OHMM     6                    : RMC          - RESISTIVITY OF MUD CAKE
RMF .OHMM     6                    : RMF          - RESISTIVITY OF MUD FILTRATE
SUFT.C        4                    : SUFT         - SURFACE TEMPERATURE
~A  DEPTH       GR     PHIN     PHID     RESD
# ...
   63.500   38.644    0.425    0.266  244.074
   63.750   43.381    0.435    0.284  200.109
   64.000   47.517    0.439    0.290  229.440
   64.250   51.075    0.434    0.284  194.944
   64.500   52.320    0.444    0.287  169.419
   64.750   55.321    0.452    0.299  178.736
   65.000   50.182    0.454    0.311  126.596
   65.250   42.752    0.453    0.314  125.847
   65.500   28.360    0.443    0.310  100.513
   65.750   20.351    0.444    0.318   78.486
   66.000   18.104    0.444    0.314   71.618
   66.250   14.144    0.434    0.316  705.185
   66.500   10.184    0.430    0.323  577.472
   66.750    9.693    0.448    0.297  346.694
   67.000   16.721    0.445    0.293 1050.390
   67.250   18.588    0.437    0.285  839.939
   67.500   16.897    0.439    0.293 1060.450
   67.750   18.164    0.441    0.305  770.102
   68.000   18.852    0.442    0.314  594.224
   68.250   13.691    0.459    0.339  426.425
   68.500   16.114    0.460    0.348  809.569
   68.750   17.938    0.444    0.354  436.180
   69.000   11.642    0.442    0.360  316.378
   69.250    6.525    0.433    0.363 1191.610
   69.500    9.505    0.422    0.337 2059.410
   69.750   14.820    0.410    0.330 2822.440
   70.000   19.534    0.415    0.319 2488.150
   70.250   21.936    0.410    0.316 2035.110
   70.500   22.046    0.399    0.307 1296.670
   70.750   26.182    0.435    0.315  776.621
   71.000   26.270    0.432    0.336  700.285
   71.250   23.488    0.428    0.315  950.663
   71.500   24.154    0.431    0.311 1243.840
   71.750   21.885    0.437    0.333 1030.760
   72.000   21.973    0.444    0.329  929.444
   72.250   24.419    0.444    0.319 1493.900
   72.500   20.993    0.435    0.316 1690.610
   72.750   22.838    0.428    0.320 1214.660
   73.000   24.104    0.420    0.320 1589.250
   73.250   22.435    0.430    0.319 1614.020
   73.500   28.885    0.431    0.325 1118.990
   73.750   45.188    0.427    0.320 1111.040
   74.000   61.491    0.427    0.320 1075.940
   74.250   55.796    0.427    0.325  676.620
   74.500   31.550    0.428    0.337  381.856
   74.750   27.012    0.429    0.330  336.229
   75.000   23.051    0.420    0.327  371.558
   75.250   15.021    0.415    0.339  723.245
   75.500   20.914    0.423    0.335  735.395
   75.750   25.629    0.429    0.332  631.551
   76.000   26.295    0.425    0.331  584.574
   76.250   22.913    0.428    0.324  559.411
   76.500   24.158    0.432    0.315  509.853
   76.750   24.846    0.430    0.313  388.760
   77.000   24.912    0.422    0.313  358.986
   77.250   26.201    0.421    0.313  459.201
   77.500   25.688    0.412    0.318  424.033
   77.750   28.090    0.422    0.331  426.058
   78.000   33.383    0.434    0.343  433.216
   78.250   31.157    0.432    0.348  390.169
   78.500   26.641    0.438    0.344  297.501
   78.750   27.285    0.448    0.330  302.499
   79.000   33.757    0.451    0.323  307.947
   79.250   31.509    0.442    0.320  226.039
   79.500   33.332    0.442    0.322  151.037
   79.750   41.539    0.449    0.326  144.708
   80.000   46.254    0.457    0.335  158.023
   80.250   60.243    0.457    0.330  183.353
   80.500   38.355    0.439    0.333  210.229
   80.750   54.636    0.433    0.309  151.044
   81.000  124.833    0.449    0.188  134.587
   81.250  125.500    0.475    0.158  121.359
   81.500  140.046    0.486    0.145  106.731
   81.750  137.220    0.503    0.142   77.600
   82.000  109.527    0.508    0.147   48.166
   82.250  101.496    0.485    0.148   25.012
   82.500   92.331    0.436    0.130  128.646
   82.750   83.722    0.410    0.128   80.901
   83.000   72.243    0.379    0.124   39.117
   83.250   72.309    0.356    0.120   24.570
   83.500   85.143    0.375    0.127   17.632
   83.750   97.976    0.409    0.144   17.300
   84.000   99.221    0.429    0.145   17.801
   84.250   98.752    0.459    0.143   19.695
   84.500  105.202    0.467    0.146   31.996
   84.750  111.651    0.474    0.148   40.879
   85.000  123.906    0.473    0.138   49.155
   85.250  108.936    0.466    0.133   39.306
   85.500  111.337    0.453    0.132   31.097
   85.750  102.750    0.428    0.131   27.741
   86.000  104.595    0.436    0.130   27.479
   86.250  101.213    0.435    0.127   28.275
   86.500   86.221    0.193    0.122   29.477
   86.750   59.662    0.235    0.114   31.470
   87.000   75.965    0.332    0.108   30.877
   87.250   91.111    0.372    0.112   30.658
   87.500  104.523    0.379    0.120   30.731
   87.750  106.346    0.400    0.125   34.041
   88.000  104.121    0.407    0.124   35.488
   88.250  111.749    0.409    0.128   33.123
   88.500  117.620    0.443    0.139   31.360
   88.750  114.816    0.483    0.149  163.229
   89.000  111.435    0.480    0.150  103.877
   89.250  118.462    0.478    0.147   53.877
   89.500  116.837    0.476    0.144   48.581
   89.750  121.552    0.473    0.141   44.383
   90.000  123.953    0.466    0.147   55.968
