~VERSION INFORMATION
 VERS.                 2.0:   CWLS LOG ASCII STANDARD -VERSION 2.0
 WRAP.                  NO:   ONE LINE PER DEPTH STEP
~WELL INFORMATION BLOCK
#MNEM.UNIT           DATA                    DESCRIPTION OF MNEMONIC
#---------    -------------------            -------------------------------
# Generated from Intellog Unique Number	CN_94_101/WELL/1074
WELL.         11-15-094-08W4                 : Well_name    - WELL
LOC .         AB/11-15-094-08W4/0            : Location     - LOCATION
UWI .         AB/11-15-094-08W400            : Uwi          - UNIQUE WELL ID
ENTR.         JOETTE                         : Entered      - ENTERED BY
SRVC.         SCHLUMBERGER                   : Scn          - SERVICE COMPANY
DATE.         04/22/92                       : Date         - LOG DATE
STRT.M        12                             : top_depth    - START DEPTH
STOP.M        140                            : bot_depth    - STOP DEPTH
STEP.M        0.25                           : increment    - STEP LENGTH
 NULL. -999.2500:NULL Value
~CURVE INFORMATION BLOCK
#MNEM UNIT       ERCB CURVE CODE    CURVE DESCRIPTION
#-----------   ------------------   ----------------------------------
DEPT.M        00 001 00 00         : DEPTH        - DEPTH
DPHI.V/V      00 890 00 00         : PHID         - DENSITY POROSITY (SANDSTONE)
NPHI.V/V      00 330 00 00         : PHIN         - NEUTRON POROSITY (SANDSTONE)
CALI.MM       00 280 01 00         : CAL          - CALIPER
ILD .OHMM     00 120 00 00         : RESD         - DEEP RESISTIVITY (DIL)
GR  .API      00 310 00 00         : GR           - GAMMA RAY
~PARAMETER INFORMATION
#MNEM.UNIT           DATA             DESCRIPTION OF MNEMONIC
#---------         -----------     ------------------------------
GL  .M        396.83               : gl           - GROUND LEVEL ELEVATION
EREF.M        396.83               : kb           - ELEVATION OF DEPTH REFERENCE
DATM.M        396.83               : datum        - DATUM ELEVATION
TDD .M        145.2                : tdd          - TOTAL DEPTH DRILLER
RUN .         ONE                  : Run          - RUN NUMBER
ENG .         BILL                 : Engineer     - RECORDING ENGINEER
WIT .         JIM                  : Witness      - WITNESSED BY
MUD .         GEL                  : Mud_type     - MUD TYPE
MATR.         SANDSTONE            : Logunit      - NEUTRON MATRIX
TMAX.C        6                    : BHT          - MAXIMUM RECORDED TEMPERATURE
BHTD.M        145.2                : BHTDEP       - MAXIMUM RECORDED TEMPERATURE
RMT .C        6                    : MDTP         - TEMPERATURE OF MUD
MUDD.KG/M     1050                 : MWT          - MUD DENSITY
NEUT.         1                    : NEUTRON      - NEUTRON TYPE
RESI.         0                    : RESIST       - RESISTIVITY TYPE
RM  .OHMM     17                   : RM           - RESISTIVITY OF MUD
RMC .OHMM     17                   : RMC          - RESISTIVITY OF MUD CAKE
RMF .OHMM     17                   : RMF          - RESISTIVITY OF MUD FILTRATE
SUFT.C        4                    : SUFT         - SURFACE TEMPERATURE
~A  DEPTH     PHID     PHIN      CAL     RESD       GR
# ...
  121.500    0.255    0.278  131.875   90.116   42.077
  121.750    0.256    0.281  133.513   93.515   33.953
  122.000    0.256    0.263  132.159  111.075   30.169
  122.250    0.240    0.260  132.797  110.753   32.554
  122.500    0.227    0.236  132.832  108.439   36.770
  122.750    0.225    0.226  132.676  103.954   32.368
  123.000    0.229    0.246  135.108  112.137   29.818
  123.250    0.256    0.285  138.953  128.131   29.119
  123.500    0.277    0.331  139.387  146.490   27.185
  123.750    0.259    0.318  140.026  188.022   25.848
  124.000    0.274    0.322  140.674  223.199   25.148
  124.250    0.280    0.322  130.310  202.001   26.896
  124.500    0.254    0.311  126.957  186.610   28.664
  124.750    0.240    0.303  129.594  162.561   31.070
  125.000    0.242    0.374  131.631  128.459   32.201
  125.250    0.259    0.371  137.070  133.226   31.522
  125.500    0.264    0.357  138.308  140.874   26.483
  125.750    0.268    0.359  134.751  120.364   23.316
  126.000    0.279    0.388  133.596  120.015   20.724
  126.250    0.284    0.359  135.429  137.212   20.066
  126.500    0.282    0.371  139.868  150.734   19.366
  126.750    0.274    0.385  141.711  179.143   17.988
  127.000    0.274    0.346  137.749  263.336   17.947
  127.250    0.273    0.346  132.389  365.235   15.972
  127.500    0.293    0.359  133.028  409.081   15.910
  127.750    0.319    0.352  131.069  377.911   15.190
  128.000    0.338    0.356  131.308  232.131   15.765
  128.250    0.344    0.361  131.757  250.259   16.279
  128.500    0.334    0.360  133.200  382.634   18.027
  128.750    0.344    0.422  134.228  520.512   19.178
  129.000    0.339    0.448  134.267  780.111   19.096
  129.250    0.344    0.393  137.508  488.841   19.013
  129.500    0.299    0.410  133.946  324.470   18.951
  129.750    0.263    0.380  134.595  416.461   20.102
  130.000    0.230    0.389  133.036  475.859   21.871
  130.250    0.192    0.417  135.473  315.853   24.235
  130.500    0.170    0.357  138.104  269.711   26.641
  130.750    0.170    0.341  140.361  133.943   30.260
  131.000    0.165    0.293  139.991   58.013   40.049
  131.250    0.154    0.217  136.629   51.526   38.116
  131.500    0.151    0.196  137.072   50.420   29.992
  131.750    0.149    0.204  139.305   75.566   23.740
  132.000    0.159    0.194  140.952  104.807   21.765
  132.250    0.147    0.168  141.786   98.601   22.896
  132.500    0.141    0.164  141.230   96.541   24.088
  132.750    0.162    0.169  140.865   98.145   25.219
  133.000    0.152    0.155  140.710  107.880   24.520
  133.250    0.158    0.153  140.749  109.736   24.458
  133.500    0.148    0.158  140.988  103.298   24.354
  133.750    0.153    0.157  141.427  122.695   24.909
  134.000    0.150    0.158  141.666  170.272   26.657
  134.250    0.151    0.155  142.305  198.249   28.425
  134.500    0.152    0.153  142.948  129.138   30.173
  134.750    0.151    0.151  142.987   87.393   32.558
  135.000    0.146    0.152  143.222   70.452   32.476
  135.250    0.147    0.154  143.261   77.440   31.159
  135.500    0.147    0.155  142.910   63.613   32.310
  135.750    0.158    0.157  142.745   48.386   34.099
  136.000    0.160    0.160  142.385   52.134   37.719
  136.250    0.155    0.160  142.034   61.960   41.317
  136.500    0.160    0.157  143.063   80.988   44.957
  136.750    0.158    0.169  143.502   76.281   50.427
  137.000    0.160    0.185  143.341   70.388   52.812
  137.250    0.150    0.194  143.190   66.258   56.431
  137.500    0.154    0.200  143.225   66.067   61.285
  137.750    0.153    0.196  143.225   65.990   64.904
  138.000    0.151    0.188  143.513   65.799   67.885
  138.250    0.152    0.200  143.542   64.349   69.037
  138.500    0.151    0.198  143.591   58.272   68.933
  138.750    0.153    0.222  143.826   53.832   69.509
  139.000    0.151    0.249  143.870   47.756   71.277
  139.250    0.153    0.238  143.909   47.673   74.279
  139.500    0.150    0.256  143.948   45.755   79.133
  139.750    0.163    0.269  143.983   42.244   82.135
  140.000    0.158    0.274  143.622   38.958   83.903
