~VERSION INFORMATION
 VERS.                 2.0:   CWLS LOG ASCII STANDARD -VERSION 2.0
 WRAP.                  NO:   ONE LINE PER DEPTH STEP
~WELL INFORMATION BLOCK
#MNEM.UNIT           DATA                    DESCRIPTION OF MNEMONIC
#---------    -------------------            -------------------------------
# Generated from Intellog Unique Number	CN_94_101/WELL/1074
WELL.         11-15-094-08W4                 : Well_name    - WELL
LOC .         AB/11-15-094-08W4/0            : Location     - LOCATION
UWI .         AB/11-15-094-08W400            : Uwi          - UNIQUE WELL ID
ENTR.         JOETTE                         : Entered      - ENTERED BY
SRVC.         SCHLUMBERGER                   : Scn          - SERVICE COMPANY
DATE.         04/22/92                       : Date         - LOG DATE
STRT.M        12                             : top_depth    - START DEPTH
STOP.M        140                            : bot_depth    - STOP DEPTH
STEP.M        0.25                           : increment    - STEP LENGTH
 NULL. -999.2500:NULL Value
~CURVE INFORMATION BLOCK
#MNEM UNIT       ERCB CURVE CODE    CURVE DESCRIPTION
#-----------   ------------------   ----------------------------------
DEPT.M        00 001 00 00         : DEPTH        - DEPTH
DPHI.V/V      00 890 00 00         : PHID         - DENSITY POROSITY (SANDSTONE)
NPHI.V/V      00 330 00 00         : PHIN         - NEUTRON POROSITY (SANDSTONE)
CALI.MM       00 280 01 00         : CAL          - CALIPER
ILD .OHMM     00 120 00 00         : RESD         - DEEP RESISTIVITY (DIL)
GR  .API      00 310 00 00         : GR           - GAMMA RAY
~PARAMETER INFORMATION
#MNEM.UNIT           DATA             DESCRIPTION OF MNEMONIC
#---------         -----------     ------------------------------
GL  .M        396.83               : gl           - GROUND LEVEL ELEVATION
EREF.M        396.83               : kb           - ELEVATION OF DEPTH REFERENCE
DATM.M        396.83               : datum        - DATUM ELEVATION
TDD .M        145.2                : tdd          - TOTAL DEPTH DRILLER
RUN .         ONE                  : Run          - RUN NUMBER
ENG .         BILL                 : Engineer     - RECORDING ENGINEER
WIT .         JIM                  : Witness      - WITNESSED BY
MUD .         GEL                  : Mud_type     - MUD TYPE
MATR.         SANDSTONE            : Logunit      - NEUTRON MATRIX
TMAX.C        6                    : BHT          - MAXIMUM RECORDED TEMPERATURE
BHTD.M        145.2                : BHTDEP       - MAXIMUM RECORDED TEMPERATURE
RMT .C        6                    : MDTP         - TEMPERATURE OF MUD
MUDD.KG/M     1050                 : MWT          - MUD DENSITY
NEUT.         1                    : NEUTRON      - NEUTRON TYPE
RESI.         0                    : RESIST       - RESISTIVITY TYPE
RM  .OHMM     17                   : RM           - RESISTIVITY OF MUD
RMC .OHMM     17                   : RMC          - RESISTIVITY OF MUD CAKE
RMF .OHMM     17                   : RMF          - RESISTIVITY OF MUD FILTRATE
SUFT.C        4                    : SUFT         - SURFACE TEMPERATURE
~A  DEPTH     PHID     PHIN      CAL     RESD       GR
   12.000    0.296    0.535  147.791    1.584   81.521
   12.250    0.320    0.490  147.820    1.463   85.119
   12.500    0.341    0.514  147.689    1.009   84.420
   12.750    0.360    0.635  147.704    1.007   79.381
   13.000    0.358    0.556  147.743    0.930   75.000
   13.250    0.352    0.509  147.787    0.749   70.599
   13.500    0.340    0.550  147.822    0.652   64.306
   13.750    0.324    0.600  147.666    0.663   61.159
   14.000    0.328    0.578  147.510    0.715   62.310
   14.250    0.293    0.531  147.150    0.771   75.184
   14.500    0.232    0.524  146.780    0.799   91.163
   14.750    0.273    0.502  146.424    0.845  103.419
   15.000    0.308    0.499  146.464    0.911   97.167
   15.250    0.342    0.539  146.308    1.002   85.959
   15.500    0.379    0.579  146.338    1.213   78.473
   15.750    0.393    0.654  146.382    2.843   80.858
   16.000    0.406    0.691  146.421    9.254   95.582
   16.250    0.406    0.709  146.460   16.205  104.754
   16.500    0.391    0.731  146.505    9.035  105.288
   16.750    0.384    0.713  146.344    5.550  104.589
   17.000    0.342    0.676  146.378    6.721  110.676
   17.250    0.324    0.624  146.223    6.697  109.339
   17.500    0.308    0.544  146.067    6.191  104.958
   17.750    0.310    0.561  146.097    6.938   90.665
   18.000    0.308    0.491  146.346   10.595   80.073
   18.250    0.261    0.542  146.979   12.592   73.204
   18.500    0.234    0.551  146.419   22.050   91.013
   18.750    0.233    0.419  145.864   26.703   97.738
   19.000    0.255    0.471  145.708   27.694   99.506
   19.250    0.272    0.510  145.748   16.050  100.658
   19.500    0.281    0.533  145.787   10.653  103.660
   19.750    0.288    0.543  146.021    4.799  113.449
   20.000    0.288    0.526  146.255    2.891  115.834
   20.250    0.305    0.508  146.909    1.137  115.751
   20.500    0.306    0.567  146.943    0.698  116.286
   20.750    0.292    0.513  146.178    0.710  112.481
   21.000    0.285    0.456  146.227    3.279  111.144
   21.250    0.279    0.447  148.065    4.730  107.997
   21.500    0.274    0.469  149.698    5.728  104.809
   21.750    0.272    0.504  150.341    7.352  110.300
   22.000    0.288    0.532  149.781   10.197  112.027
   22.250    0.316    0.541  148.617   12.845  113.815
   22.500    0.333    0.513  146.863   17.138  115.563
   22.750    0.332    0.556  146.098   17.774  109.332
   23.000    0.311    0.521  145.742   15.177  103.059
   23.250    0.293    0.491  145.577   14.013   98.041
   23.500    0.263    0.508  145.616   13.704   98.554
   23.750    0.286    0.457  145.261   11.709  100.960
   24.000    0.311    0.514  144.706    9.080  103.942
   24.250    0.310    0.453  144.345    8.710  105.731
   24.500    0.304    0.464  144.345    9.033  108.733
   24.750    0.295    0.432  144.029    9.929  109.267
   25.000    0.286    0.461  143.654   10.297  104.208
   25.250    0.272    0.457  143.499   10.070  102.912
   25.500    0.262    0.488  143.368    9.860  104.680
   25.750    0.245    0.459  143.377    9.452  102.747
   26.000    0.193    0.467  143.217    9.441   87.837
   26.250    0.165    0.420  143.261   10.581   81.543
   26.500    0.136    0.454  143.300   18.880   77.142
   26.750    0.149    0.324  142.935   24.232   71.507
   27.000    0.234    0.421  142.784   25.117   65.872
   27.250    0.303    0.496  142.614   20.656   83.084
   27.500    0.328    0.461  142.658   17.984   77.429
   27.750    0.326    0.489  142.698   20.963   74.261
   28.000    0.325    0.532  142.946   20.890   82.816
   28.250    0.324    0.467  143.210   20.061   90.754
   28.500    0.315    0.491  143.420   19.254   92.501
   28.750    0.296    0.450  143.659   18.468   90.589
   29.000    0.299    0.450  144.103   17.385   75.679
   29.250    0.310    0.466  144.342   15.743   68.172
   29.500    0.315    0.478  144.376   13.706   61.920
   29.750    0.314    0.502  144.230   19.021   58.135
   30.000    0.308    0.424  144.654   33.287   55.585
   30.250    0.305    0.491  145.698   59.464   58.587
   30.500    0.302    0.508  145.737   90.864   83.820
   30.750    0.304    0.507  145.776   54.742   70.761
   31.000    0.309    0.480  145.421   40.032   65.722
   31.250    0.312    0.467  145.260   29.292   69.362
   31.500    0.306    0.432  145.100   26.001   85.320
   31.750    0.273    0.445  144.944   24.462   93.258
   32.000    0.237    0.445  144.174   21.322  100.600
   32.250    0.158    0.359  145.013   16.208   86.924
   32.500    0.188    0.290  143.858   12.570   85.607
   32.750    0.269    0.383  145.296    9.731   89.226
   33.000    0.300    0.486  146.939   10.912   94.696
   33.250    0.310    0.511  146.778   12.475  103.868
   33.500    0.319    0.565  146.213   15.394  106.850
   33.750    0.330    0.493  145.054   15.668  104.320
   34.000    0.324    0.565  143.894   15.623  100.515
   34.250    0.282    0.587  143.743   14.424  100.412
   34.500    0.250    0.544  144.372   12.811  102.180
   34.750    0.232    0.523  145.211   11.160   98.396
   35.000    0.255    0.490  145.465   13.001   90.910
   35.250    0.301    0.508  144.300   16.367   84.657
   35.500    0.340    0.561  144.739   14.537   83.958
   35.750    0.334    0.579  146.177   15.076   96.831
   36.000    0.333    0.640  146.811   28.528   99.196
   36.250    0.357    0.667  145.856   48.027   99.113
   36.500    0.366    0.671  145.296   18.173   99.010
   36.750    0.361    0.575  148.931    7.720   99.565
   37.000    0.360    0.564  145.774    7.128  100.100
   37.250    0.361    0.654  143.815    6.086  100.038
   37.500    0.354    0.614  145.653    6.436   99.934
   37.750    0.336    0.632  146.291    6.930   96.150
   38.000    0.300    0.655  145.137    7.196   94.834
   38.250    0.286    0.579  146.180    7.905  110.175
   38.500    0.293    0.501  148.412    8.203  115.624
   38.750    0.295    0.521  142.058    8.184  113.095
   39.000    0.296    0.585  145.499    6.221  108.076
   39.250    0.301    0.543  145.738    3.748  101.187
   39.500    0.298    0.549  146.172    2.347   97.402
   39.750    0.269    0.573  146.411    1.856  100.405
   40.000    0.244    0.463  144.657    1.357  110.810
   40.250    0.221    0.443  143.697    1.302  112.579
   40.500    0.196    0.382  142.133    0.971  106.326
   40.750    0.156    0.316  138.980    0.501  101.246
   41.000    0.211    0.360  139.614    0.420  103.673
   41.250    0.269    0.473  144.054    0.301  102.336
   41.500    0.302    0.489  145.497    0.548   99.168
   41.750    0.292    0.496  145.341    1.361   98.469
   42.000    0.290    0.526  145.176    4.021  102.109
   42.250    0.288    0.518  145.415    8.546  105.111
   42.500    0.286    0.513  143.656    8.363  109.964
   42.750    0.282    0.540  142.901    7.569  113.583
   43.000    0.268    0.528  142.930    7.125  111.650
   43.250    0.212    0.526  144.173    7.989  103.526
   43.500    0.239    0.450  145.212    9.675  103.423
   43.750    0.265    0.446  145.650   10.425   94.086
   44.000    0.280    0.486  146.099   11.465   81.643
   44.250    0.282    0.507  146.728   24.369   87.730
   44.500    0.289    0.511  147.567   60.484   96.902
   44.750    0.300    0.577  147.811   26.212  101.159
   45.000    0.288    0.555  147.850   15.791  101.693
   45.250    0.285    0.577  147.889   13.218  100.356
   45.500    0.299    0.510  148.133   12.450  100.891
   45.750    0.292    0.500  149.366    9.464  100.170
   46.000    0.258    0.491  148.606    9.442   95.173
   46.250    0.248    0.449  148.646    9.420   88.283
   46.500    0.263    0.488  146.892   10.758   95.625
   46.750    0.272    0.478  146.531   13.290  103.562
   47.000    0.279    0.500  146.970   15.474  103.459
   47.250    0.299    0.494  147.614   12.726   99.675
   47.500    0.312    0.473  147.648    8.953  101.423
   47.750    0.316    0.476  147.493    7.794  105.679
   48.000    0.321    0.531  147.737    6.923  110.532
   48.250    0.323    0.485  149.569    6.392  108.599
