~VERSION INFORMATION
 VERS.                 2.0:   CWLS LOG ASCII STANDARD -VERSION 2.0
 WRAP.                  NO:   ONE LINE PER DEPTH STEP
~WELL INFORMATION BLOCK
#MNEM.UNIT           DATA                    DESCRIPTION OF MNEMONIC
#---------    -------------------            -------------------------------
# Generated from Intellog Unique Number	CN_94_101/WELL/3246
WELL.         10-18-096-10W4                 : Well_name    - WELL
LOC .         AB/10-18-096-10W4/0            : Location     - LOCATION
UWI .         AB/10-18-096-10W400            : Uwi          - UNIQUE WELL ID
ENTR.         JOETTE                         : Entered      - ENTERED BY
SRVC.         SCHLUMBERGER                   : Scn          - SERVICE COMPANY
DATE.         07/20/92                       : Date         - LOG DATE
STRT.M        0                              : top_depth    - START DEPTH
STOP.M        115.25                         : bot_depth    - STOP DEPTH
STEP.M        0.25                           : increment    - STEP LENGTH
 NULL. -999.2500:NULL Value
~CURVE INFORMATION BLOCK
#MNEM UNIT       ERCB CURVE CODE    CURVE DESCRIPTION
#-----------   ------------------   ----------------------------------
DEPT.M        00 001 00 00         : DEPTH        - DEPTH
ILD .OHMM     00 120 00 00         : RESD         - DEEP RESISTIVITY (DIL)
GR  .API      00 310 00 00         : GR           - GAMMA RAY
NPHI.V/V      00 330 00 00         : PHIN         - NEUTRON POROSITY (SANDSTONE)
DPHI.V/V      00 890 00 00         : PHID         - DENSITY POROSITY (SANDSTONE)
~PARAMETER INFORMATION
#MNEM.UNIT           DATA             DESCRIPTION OF MNEMONIC
#---------         -----------     ------------------------------
GL  .M        0                    : gl           - GROUND LEVEL ELEVATION
EREF.M        0                    : kb           - ELEVATION OF DEPTH REFERENCE
DATM.M        0                    : datum        - DATUM ELEVATION
TDD .M        119.5                : tdd          - TOTAL DEPTH DRILLER
RUN .         ONE                  : Run          - RUN NUMBER
ENG .         BILL                 : Engineer     - RECORDING ENGINEER
WIT .         JIM                  : Witness      - WITNESSED BY
MUD .         GEL                  : Mud_type     - MUD TYPE
MATR.         SANDSTONE            : Logunit      - NEUTRON MATRIX
TMAX.C        0                    : BHT          - MAXIMUM RECORDED TEMPERATURE
BHTD.M        119.5                : BHTDEP       - MAXIMUM RECORDED TEMPERATURE
RMT .C        0                    : MDTP         - TEMPERATURE OF MUD
MUDD.KG/M     0                    : MWT          - MUD DENSITY
NEUT.         1                    : NEUTRON      - NEUTRON TYPE
RESI.         0                    : RESIST       - RESISTIVITY TYPE
RM  .OHMM     1.84                 : RM           - RESISTIVITY OF MUD
RMC .OHMM     1.84                 : RMC          - RESISTIVITY OF MUD CAKE
RMF .OHMM     1.84                 : RMF          - RESISTIVITY OF MUD FILTRATE
SUFT.C        4                    : SUFT         - SURFACE TEMPERATURE
~A  DEPTH     RESD       GR     PHIN     PHID
    0.000    1.341   86.463    0.162    0.239
    0.250    1.311   75.328    0.162    0.237
    0.500    1.281   50.437    0.163    0.237
    0.750    1.252   43.231    0.163    0.236
    1.000    1.181   41.266    0.163    0.236
    1.250    1.154   39.301    0.164    0.236
    1.500    1.089   42.576    0.169    0.237
    1.750    1.064   24.891    0.203    0.238
    2.000    0.993   33.406    0.241    0.238
    2.250    0.959   29.476    0.289    0.239
    2.500    0.937   32.096    0.465    0.238
    2.750    0.895   35.371    0.507    0.238
    3.000    0.885   34.716    0.491    0.238
    3.250    0.854   26.856    0.528    0.238
    3.500    0.875   29.476    0.525    0.239
    3.750    0.929   36.026    0.522    0.239
    4.000    1.009   41.921    0.485    0.239
    4.250    0.998   34.716    0.467    0.239
    4.500    0.975   28.166    0.471    0.239
    4.750    0.953   31.441    0.460    0.245
    5.000    0.942   34.061    0.430    0.241
    5.250    0.966   36.681    0.423    0.241
    5.500    0.977   34.716    0.438    0.241
    5.750    1.013   30.131    0.457    0.241
    6.000    1.050   35.371    0.471    0.241
    6.250    1.101   30.786    0.467    0.241
    6.500    1.115   34.716    0.462    0.241
    6.750    1.102   36.681    0.497    0.242
    7.000    1.065   34.061    0.500    0.243
    7.250    1.041   32.751    0.514    0.243
    7.500    1.029   32.096    0.520    0.243
    7.750    1.042   32.751    0.522    0.243
    8.000    1.119   28.821    0.528    0.243
    8.250    1.173   23.581    0.532    0.243
    8.500    1.120   28.821    0.491    0.243
    8.750    1.082   30.786    0.464    0.243
    9.000    1.108   28.166    0.469    0.243
    9.250    1.232   28.166    0.500    0.243
    9.500    1.488   27.511    0.513    0.244
    9.750    1.506   28.821    0.516    0.244
   10.000    1.472   30.131    0.513    0.245
   10.250    1.341   32.751    0.508    0.245
   10.500    1.423   28.166    0.491    0.246
   10.750    1.620   29.476    0.486    0.246
   11.000    2.074   33.406    0.474    0.246
   11.250    2.200   28.821    0.499    0.246
   11.500    2.657   30.786    0.521    0.246
   11.750    3.402   36.026    0.549    0.400
   12.000    3.525   34.716    0.556    0.393
   12.250    4.731   36.026    0.469    0.383
   12.500   24.791   27.511    0.443    0.360
   12.750   33.271   34.716    0.450    0.340
   13.000   37.874   28.821    0.465    0.330
   13.250   46.812   43.886    0.445    0.333
   13.500   62.826   45.197    0.448    0.345
   13.750   59.277   40.611    0.483    0.361
   14.000   53.993   53.057    0.498    0.378
   14.250   65.957   44.541    0.457    0.351
   14.500   70.820   44.541    0.439    0.312
   14.750   72.533   47.817    0.437    0.305
   15.000   44.322   56.987    0.451    0.303
   15.250   37.625   63.537    0.477    0.321
   15.500   45.962   42.576    0.446    0.334
   15.750   57.481   48.472    0.446    0.314
   16.000   49.955   64.847    0.462    0.302
   16.250   44.971   70.087    0.479    0.299
   16.500   47.160   76.638    0.496    0.304
   16.750   36.455   76.638    0.471    0.306
   17.000   38.219   52.402    0.466    0.293
   17.250   40.558   60.262    0.455    0.296
   17.500   36.942   64.192    0.449    0.297
   17.750   34.860   55.022    0.458    0.299
   18.000   39.683   49.127    0.444    0.296
   18.250   48.476   56.332    0.449    0.299
   18.500   32.923   55.677    0.462    0.317
   18.750   32.177   70.742    0.480    0.288
   19.000   22.373   74.017    0.445    0.245
   19.250   36.654   62.227    0.442    0.290
   19.500   33.781   74.017    0.453    0.294
   19.750   31.873   77.948    0.482    0.284
   20.000   18.585   79.258    0.468    0.280
   20.250   13.382   81.223    0.515    0.277
   20.500   16.159   74.672    0.456    0.226
   20.750   16.359   85.153    0.437    0.292
   21.000   10.852   89.083    0.578    0.311
   21.250   10.000   99.563    0.552    0.289
   21.500    7.728   96.288    0.518    0.269
   21.750    9.117  108.734    0.481    0.242
   22.000    9.447  106.114    0.481    0.245
   22.250    9.342   96.943    0.498    0.254
   22.500    9.683  100.218    0.501    0.252
   22.750    9.245   92.358    0.471    0.243
   23.000    9.696   93.013    0.461    0.235
   23.250   10.167  101.528    0.468    0.234
   23.500   10.536  107.424    0.474    0.267
   23.750    9.266   89.738    0.465    0.280
   24.000   10.303   92.358    0.454    0.280
   24.250   12.886   83.188    0.455    0.272
   24.500   12.158   79.913    0.453    0.267
   24.750   13.363   71.397    0.448    0.272
   25.000   12.172   72.707    0.448    0.281
   25.250   14.021   85.808    0.448    0.255
   25.500   14.532   90.393    0.465    0.215
   25.750    9.755  106.769    0.478    0.189
   26.000   10.229   83.843    0.498    0.222
   26.250    9.765   84.498    0.476    0.248
   26.500   10.735   89.738    0.457    0.248
   26.750   11.661   98.253    0.450    0.189
   27.000   10.132   90.393    0.474    0.155
   27.250   13.759   87.773    0.498    0.218
   27.500    8.811   88.428    0.469    0.211
   27.750   11.150   88.428    0.454    0.223
   28.000   10.772   81.878    0.462    0.245
   28.250   11.033   81.878    0.459    0.255
   28.500   12.269   88.428    0.449    0.252
   28.750   13.328   85.808    0.451    0.247
   29.000   11.998   87.773    0.483    0.239
   29.250   10.675   96.288    0.497    0.244
   29.500    9.610   66.812    0.451    0.273
   29.750   11.739   60.262    0.415    0.281
   30.000   15.032   53.712    0.390    0.293
   30.250   22.419   49.127    0.378    0.306
   30.500   28.045   49.782    0.374    0.309
   30.750   28.388   75.328    0.388    0.287
   31.000   22.457   70.087    0.406    0.279
   31.250   20.216   68.122    0.414    0.278
   31.500   19.074   91.703    0.407    0.214
   31.750   12.075   77.293    0.432    0.222
   32.000   14.406   66.812    0.430    0.214
   32.250   24.166   56.987    0.406    0.221
   32.500   22.804   62.227    0.434    0.271
   32.750   22.814   69.432    0.444    0.277
   33.000   18.478   74.017    0.426    0.274
   33.250   15.871   74.017    0.417    0.290
   33.500   15.695   86.463    0.447    0.267
   33.750   13.481   80.568    0.453    0.265
   34.000   15.529   78.603    0.427    0.283
   34.250   18.100   71.397    0.400    0.278
   34.500   18.981   78.603    0.388    0.243
   34.750   25.474   68.777    0.380    0.247
   35.000   27.029   58.952    0.369    0.231
   35.250   17.108   66.812    0.390    0.237
   35.500   17.944   83.843    0.423    0.219
   35.750   12.473   96.288    0.463    0.213
   36.000   13.551   84.498    0.455    0.210
   36.250   15.247   73.362    0.443    0.223
   36.500   22.213   79.258    0.436    0.247
   36.750   17.166   83.188    0.453    0.245
   37.000   13.741   85.153    0.463    0.251
   37.250   19.100   87.773    0.455    0.259
   37.500   12.972   83.188    0.453    0.236
   37.750   16.609   80.568    0.449    0.260
   38.000   18.044   59.607    0.436    0.286
   38.250   19.148   38.646    0.426    0.305
   38.500   18.935   67.467    0.434    0.278
   38.750   17.863   83.188    0.454    0.258
   39.000   13.968   94.323    0.471    0.226
   39.250   14.998   83.843    0.456    0.222
   39.500   14.316   68.777    0.446    0.241
   39.750   16.491   58.297    0.434    0.266
   40.000   24.024   56.332    0.444    0.280
   40.250   35.004   49.782    0.440    0.295
   40.500   34.615   57.642    0.419    0.282
   40.750   22.964   64.847    0.413    0.259
   41.000   24.948   55.022    0.441    0.274
   41.250   27.740   72.052    0.436    0.223
   41.500   29.090   88.428    0.439    0.214
   41.750   24.122   91.703    0.439    0.226
   42.000   18.209   81.878    0.441    0.237
   42.250   17.798   74.672    0.445    0.249
   42.500   18.665   70.087    0.446    0.265
   42.750   19.342   58.297    0.442    0.283
   43.000   21.509   62.227    0.455    0.302
   43.250   25.973   60.262    0.447    0.303
