~VERSION INFORMATION
 VERS.                 2.0:   CWLS LOG ASCII STANDARD -VERSION 2.0
 WRAP.                  NO:   ONE LINE PER DEPTH STEP
~WELL INFORMATION BLOCK
#MNEM.UNIT           DATA                    DESCRIPTION OF MNEMONIC
#---------    -------------------            -------------------------------
# Generated from Intellog Unique Number	CN_91_93/WELL/3654
WELL.         12-15-093-11W4                 : Well_name    - WELL
LOC .         AB/12-15-093-11W4/0            : Location     - LOCATION
UWI .         AB/12-15-093-11W400            : Uwi          - UNIQUE WELL ID
ENTR.         JOETTE                         : Entered      - ENTERED BY
SRVC.         SCHLUMBERGER                   : Scn          - SERVICE COMPANY
DATE.         03/20/92                       : Date         - LOG DATE
STRT.M        0                              : top_depth    - START DEPTH
STOP.M        110                            : bot_depth    - STOP DEPTH
STEP.M        0.25                           : increment    - STEP LENGTH
 NULL. -999.2500:NULL Value
~CURVE INFORMATION BLOCK
#MNEM UNIT       ERCB CURVE CODE    CURVE DESCRIPTION
#-----------   ------------------   ----------------------------------
DEPT.M        00 001 00 00         : DEPTH        - DEPTH
GR  .API      00 310 00 00         : GR           - GAMMA RAY
NPHI.V/V      00 330 00 00         : PHIN         - NEUTRON POROSITY (SANDSTONE)
DPHI.V/V      00 890 00 00         : PHID         - DENSITY POROSITY (SANDSTONE)
ILD .OHMM     00 120 00 00         : RESD         - DEEP RESISTIVITY (DIL)
~PARAMETER INFORMATION
#MNEM.UNIT           DATA             DESCRIPTION OF MNEMONIC
#---------         -----------     ------------------------------
GL  .M        323.7                : gl           - GROUND LEVEL ELEVATION
EREF.M        323.7                : kb           - ELEVATION OF DEPTH REFERENCE
DATM.M        323.7                : datum        - DATUM ELEVATION
TDD .M        112.2                : tdd          - TOTAL DEPTH DRILLER
RUN .         ONE                  : Run          - RUN NUMBER
ENG .         BILL                 : Engineer     - RECORDING ENGINEER
WIT .         JIM                  : Witness      - WITNESSED BY
MUD .         GEL                  : Mud_type     - MUD TYPE
MATR.         SANDSTONE            : Logunit      - NEUTRON MATRIX
TMAX.C        8                    : BHT          - MAXIMUM RECORDED TEMPERATURE
BHTD.M        112.2                : BHTDEP       - MAXIMUM RECORDED TEMPERATURE
RMT .C        18                   : MDTP         - TEMPERATURE OF MUD
MUDD.KG/M     1100                 : MWT          - MUD DENSITY
NEUT.         1                    : NEUTRON      - NEUTRON TYPE
RESI.         0                    : RESIST       - RESISTIVITY TYPE
RM  .OHMM     6.4                  : RM           - RESISTIVITY OF MUD
RMC .OHMM     6.4                  : RMC          - RESISTIVITY OF MUD CAKE
RMF .OHMM     6.4                  : RMF          - RESISTIVITY OF MUD FILTRATE
SUFT.C        -15                  : SUFT         - SURFACE TEMPERATURE
~A  DEPTH       GR     PHIN     PHID     RESD
    0.000   70.704    0.533    0.089    0.000
    0.250   73.643    0.535    0.092    0.000
    0.500   80.983    0.536    0.094    0.000
    0.750   82.162    0.535    0.094    0.000
    1.000   80.407    0.531    0.096    0.000
    1.250   74.839    0.524    0.099    0.000
    1.500   73.084    0.435    0.100    0.000
    1.750   78.957    0.365    0.100    0.000
    2.000   73.682    0.297    0.098    0.000
    2.250   70.461    0.284    0.088    0.000
    2.500   70.172    0.270    0.088    0.000
    2.750   66.071    0.241    0.091    0.000
    3.000   71.064    0.225    0.059    0.000
    3.250   70.189    0.213    0.059    0.000
    3.500   62.273    0.222    0.051    0.000
    3.750   79.294    0.233    0.064    0.000
    4.000   94.263    0.250    0.081    0.000
    4.250   90.747    0.262    0.078    0.000
    4.500   85.766    0.274    0.083    0.000
    4.750   87.238    0.279    0.075    0.000
    5.000   84.016    0.271    0.089    0.000
    5.250   96.050    0.269    0.080    0.000
    5.500   87.841    0.246    0.072    0.000
    5.750   82.273    0.194    0.063    0.000
    6.000   88.733    0.216    0.067    0.000
    6.250  100.473    0.256    0.078    0.000
    6.500   84.343    0.261    0.080    0.000
    6.750   74.960    0.263    0.077    0.000
    7.000   98.142    0.272    0.078    0.000
    7.250  104.602    0.257    0.066    0.000
    7.500   86.125    0.217    0.053    0.000
    7.750   80.264    0.239    0.070    0.000
    8.000   76.162    0.223    0.084    0.000
    8.250   80.861    0.231    0.067    0.000
    8.500   79.987    0.241    0.077    0.000
    8.750   63.269    0.262    0.074    0.000
    9.000   68.263    0.262    0.073    0.000
    9.250   72.376    0.270    0.077    0.000
    9.500   73.261    0.279    0.075    0.000
    9.750   65.639    0.282    0.077    0.000
   10.000   55.083    0.085    0.087    0.000
   10.250   65.356    0.120   -0.005    0.000
   10.500   65.362    0.180    0.007    0.000
   10.750   62.727    0.536   -0.006    0.000
   11.000   62.147    0.554   -0.014    0.000
   11.250   70.073    0.567   -0.007    0.000
   11.500   67.144    0.680   -0.004    0.000
   11.750   68.323    0.663    0.005    0.000
   12.000   63.048    0.684    0.004    0.000
   12.250   57.187    0.574    0.002    0.000
   12.500   64.820    0.543   -0.003    0.000
   12.750   64.532    0.590    0.042    0.000
   13.000   71.578    0.626    0.021    0.000
   13.250   63.076    0.590   -0.009    0.000
   13.500   53.987    0.548   -0.010    0.000
   13.750   50.766    0.536   -0.009    0.000
   14.000   59.865    0.541   -0.007    0.000
   14.250   71.312    0.504   -0.006    0.000
   14.500   64.570    0.453   -0.006    0.000
   14.750   51.961    0.475   -0.006    0.000
   15.000   54.606    0.502   -0.006    0.000
   15.250   50.212    0.344   -0.006    0.000
   15.500   61.659    0.443   -0.007    0.000
   15.750   83.374    0.564   -0.006    0.000
   16.000   75.459    0.606   -0.006    0.000
   16.250   71.943    0.614   -0.007    0.000
   16.500   75.176    0.611   -0.007    0.000
   16.750   74.302    0.590   -0.003    0.000
   17.000   76.948    0.601   -0.003    0.000
   17.250   75.779    0.680   -0.007    0.000
   17.500   85.174    0.517   -0.009    0.000
   17.750   75.498    0.530   -0.009    0.000
   18.000   75.796    0.603   -0.002    4.768
   18.250  100.738    0.645    0.063    5.206
   18.500   91.942    0.460    0.070    9.079
   18.750  100.456    0.468    0.066   10.754
   19.000   97.821    0.483    0.068   12.481
   19.250   95.480    0.512    0.073   12.309
   19.500  117.488    0.510    0.076   11.114
   19.750  106.640    0.498    0.077    9.251
   20.000   99.897    0.495    0.074    9.502
   20.250   99.609    0.447    0.071   15.171
   20.500   72.624    0.420    0.069   22.480
   20.750   99.620    0.444    0.072   17.484
   21.000  100.506    0.466    0.077    7.794
   21.250  111.953    0.589    0.074    7.635
   21.500  116.359    0.558    0.072    6.988
   21.750  121.939    0.571    0.072    7.227
   22.000  118.717    0.594    0.073    6.615
   22.250  102.294    0.631    0.074    4.807
   22.500  113.448    0.658    0.077    4.614
   22.750  110.225    0.663    0.084    4.223
   23.000  116.979    0.655    0.085    4.053
   23.250  116.104    0.700    0.075    4.052
   23.500  111.416    0.634    0.330    4.106
   23.750  115.822    0.650    0.306    4.393
   24.000  116.121    0.639    0.261    5.840
   24.250  108.792    0.535    0.274    5.381
   24.500  121.999    0.535    0.313    5.757
   24.750  109.683    0.489    0.180    8.946
   25.000   95.314    0.422    0.168   16.696
   25.250  109.988    0.450    0.189    8.584
   25.500  112.340    0.432    0.248    8.523
   25.750  109.118    0.474    0.315    6.857
   26.000  115.285    0.483    0.289    7.693
   26.250  113.530    0.452    0.248    9.491
   26.500  120.284    0.451    0.229    9.815
   26.750  111.488    0.442    0.181    9.813
   27.000   97.704    0.321    0.073    9.677
   27.250  105.338    0.486    0.124   27.321
   27.500  114.438    0.516    0.171   10.707
   27.750  114.444    0.487    0.228   10.417
   28.000  126.184    0.473    0.238   10.920
   28.250  121.203    0.461    0.240   11.217
   28.500   97.444    0.399    0.150   11.138
   28.750   82.194    0.410    0.171   14.907
   29.000   82.200    0.403    0.057   12.408
   29.250   93.061    0.329    0.097   34.558
   29.500  108.028    0.404    0.130   31.203
   29.750  107.447    0.509    0.223    8.770
   30.000  113.320    0.491    0.254    8.192
   30.250  116.552    0.496    0.261    8.357
   30.500  129.173    0.526    0.261    7.807
   30.750  122.138    0.557    0.263    7.146
   31.000  126.251    0.531    0.294    6.365
   31.250  107.773    0.539    0.272    6.406
   31.500  119.514    0.449    0.260    6.995
   31.750  105.731    0.420    0.189    9.111
   32.000  129.793    0.462    0.200   14.646
   32.250  119.531    0.525    0.214    7.896
   32.500  112.201    0.518    0.214    8.110
   32.750  128.343    0.528    0.242    6.751
   33.000  133.042    0.510    0.257    6.887
   33.250  126.594    0.548    0.230    7.074
   33.500  135.107    0.498    0.239    6.175
   33.750  138.633    0.511    0.253    5.967
   34.000  123.383    0.490    0.231    6.471
   34.250  124.855    0.431    0.214    7.823
   34.500  136.596    0.486    0.222    7.611
   34.750  143.936    0.470    0.225    6.734
   35.000  134.847    0.413    0.221    6.551
   35.250  104.928    0.426    0.210    6.119
   35.500   97.012    0.450    0.187    8.473
   35.750   95.551    0.433    0.114   15.706
   36.000  131.642    0.493    0.202    5.791
   36.250  117.272    0.496    0.248    4.383
   36.500  134.293    0.579    0.303    3.698
   36.750  144.273    0.597    0.295    3.722
   37.000  137.531    0.536    0.266    4.119
   37.250  130.789    0.477    0.243    5.861
   37.500  129.329    0.481    0.244    6.144
   37.750  126.400    0.424    0.233    6.184
   38.000  117.897    0.500    0.250    5.217
   38.250  124.650    0.481    0.241    5.432
   38.500  137.565    0.514    0.238    6.219
   38.750  128.182    0.523    0.260    7.468
   39.000  107.064    0.408    0.200    9.151
   39.250   92.108    0.413    0.066   21.077
   39.500   91.820    0.624    0.298    7.410
   39.750   90.653    0.687    0.315    3.395
   40.000   99.752    0.660    0.343    2.622
   40.250   95.357    0.705    0.367    2.844
   40.500   84.214    0.773    0.381    2.767
   40.750   96.542    0.662    0.342    2.980
   41.000   92.440    0.623    0.334    3.778
   41.250   95.966    0.568    0.320    4.475
   41.500   97.732    0.549    0.233    4.691
   41.750   99.204    0.529    0.219    5.907
   42.000   86.594    0.459    0.228    5.086
   42.250  100.682    0.540    0.262    4.593
   42.500  108.609    0.504    0.251    4.591
   42.750  102.160    0.533    0.277    4.813
   43.000   95.712    0.564    0.268    6.019
   43.250   91.023    0.481    0.251    7.129
