~VERSION INFORMATION
 VERS.                 2.0:   CWLS LOG ASCII STANDARD -VERSION 2.0
 WRAP.                  NO:   ONE LINE PER DEPTH STEP
~WELL INFORMATION BLOCK
#MNEM.UNIT           DATA                    DESCRIPTION OF MNEMONIC
#---------    -------------------            -------------------------------
# Generated from Intellog Unique Number	CC_84_87/WELL/2335
NULL.         -999.25                        : NULL_VALUE
WELL.         SUNCOR CHEECHAM                : Well_name    - WELL
LOC .         11-32-084-06W4                 : Location     - LOCATION          
UWI .         AB/11-32-084-06W4/0            : Uwi          - UNIQUE WELL ID    
ENTR.         DW                             : Entered      - ENTERED BY        
SRVC.         SCHLUMBERGER                   : Scn          - SERVICE COMPANY   
DATE.         08 mar 82                      : Date         - LOG DATE
STRT.M        125                            : top_depth    - START DEPTH       
STOP.M        310.099                        : bot_depth    - STOP DEPTH        
STEP.M        0.3                            : increment    - STEP LENGTH       
~CURVE INFORMATION BLOCK
#MNEM UNIT       ERCB CURVE CODE    CURVE DESCRIPTION
#-----------   ------------------   ----------------------------------
DEPT.M        00 001 00 00         : DEPTH        - DEPTH                       
DPHI.V/V      00 890 00 00         : PHID         - DENSITY POROSITY (LIMESTONE)
NPHI.V/V      00 330 00 00         : PHIN         - NEUTRON POROSITY (LIMESTONE)
GR  .API      00 310 00 00         : GR           - GAMMA RAY                   
ILD .OHMM     00 120 00 00         : RESD         - DEEP RESISTIVITY (DIL)      
~PARAMETER INFORMATION       
#MNEM.UNIT           DATA             DESCRIPTION OF MNEMONIC
#---------         -----------     ------------------------------
GL  .M        486.3                : gl           - GROUND LEVEL ELEVATION      
EREF.M        489.4                : kb           - ELEVATION OF DEPTH REFERENCE
DATM.M        489.4                : datum        - DATUM ELEVATION             
TDD .M        314                  : tdd          - TOTAL DEPTH DRILLER         
RUN .         ONE                  : Run          - RUN NUMBER                  
ENG .         BILL                 : Engineer     - RECORDING ENGINEER          
WIT .         JIM                  : Witness      - WITNESSED BY                
MUD .         GEL                  : Mud_type     - MUD TYPE                    
MATR.         LIMESTONE            : Logunit      - NEUTRON MATRIX              
TMAX.C        20                   : BHT          - MAXIMUM RECORDED TEMPERATURE
BHTD.M        314                  : BHTDEP       - MAXIMUM RECORDED TEMPERATURE
MATR.         1                    : LOGUNIT      - NEUTRON MATRIX              
RMT .C        25                   : MDTP         - TEMPERATURE OF MUD          
NEUT.         1                    : NEUTRON      - NEUTRON TYPE                
RESI.         0                    : RESIST       - RESISTIVITY TYPE            
RMC .OHMM     0.25                 : RMC          - RESISTIVITY OF MUD CAKE     
RMF .OHMM     0.25                 : RMF          - RESISTIVITY OF MUD FILTRATE 
SUFT.C        15                   : SUFT         - SURFACE TEMPERATURE         
~A  DEPTH     PHID     PHIN       GR     RESD
# ...
  177.201    0.241    0.451   86.414    8.368
  177.501    0.238    0.445   83.998    6.572
  177.801    0.254    0.446   90.614    6.216
  178.101    0.256    0.480   98.433    6.105
  178.401    0.216    0.509  100.231    6.338
  178.701    0.231    0.498   94.804    6.581
  179.001    0.245    0.446   88.169    7.360
  179.301    0.271    0.421   85.148    9.036
  179.601    0.335    0.425   83.335    9.209
  179.901    0.394    0.509   88.745    9.212
  180.201    0.275    0.522   85.123    9.215
  180.501    0.226    0.427   79.694    9.048
  180.801    0.292    0.423   82.093    8.094
  181.101    0.341    0.500   82.689    5.901
  181.401    0.369    0.529   80.270    4.810
  181.701    0.318    0.542   80.262    4.466
  182.001    0.311    0.519   84.469    4.468
  182.301    0.351    0.497   91.084    4.905
  182.601    0.368    0.494   88.064    5.487
  182.901    0.365    0.510   80.225    5.913
  183.201    0.311    0.514   83.831    6.613
  183.501    0.249    0.485   82.617    8.911
  183.801    0.245    0.470   81.405    9.967
  184.101    0.249    0.468   80.190    9.084
  184.401    0.279    0.463   80.181    6.746
  184.701    0.364    0.476   80.777    4.565
  185.001    0.415    0.512   88.598    3.206
  185.301    0.428    0.588   87.983    3.207
  185.601    0.395    0.590   86.774    3.724
  185.901    0.363    0.579   89.775    4.925
  186.201    0.352    0.479   90.369    6.887
  186.501    0.230    0.467   85.543    7.996
  186.801    0.221    0.467   79.512    8.778
  187.101    0.224    0.477   75.287    9.460
  187.401    0.242    0.451   77.084    9.642
  187.701    0.229    0.448   78.279    9.467
  188.001    0.226    0.454   83.089    8.956
  188.301    0.267    0.475   83.684    8.795
  188.601    0.272    0.439   78.853    8.962
  188.901    0.274    0.433   77.041    9.306
  189.201    0.272    0.437   81.847    9.661
  189.501    0.254    0.434   81.840   10.411
  189.801    0.066    0.421   74.004   11.645
  190.101    0.119    0.386   62.551   11.016
  190.401    0.211    0.408   71.576    8.651
  190.701    0.335    0.436   77.591    7.596
  191.001    0.409    0.465   80.594    6.548
  191.301    0.410    0.482   84.799    6.550
  191.601    0.360    0.503   87.803    8.042
  191.901    0.262    0.507   95.022    8.666
  192.201    0.239    0.422   99.230    8.669
  192.501    0.240    0.414   99.822    8.355
  192.801    0.269    0.427   96.803    7.474
  193.101    0.314    0.473   86.555    5.655
  193.401    0.377    0.524   79.318    3.826
  193.701    0.441    0.568   73.890    3.119
  194.001    0.442    0.574   70.267    2.590
  194.301    0.440    0.565   72.065    2.639
  194.601    0.267    0.563   73.261    3.363
  194.901    0.253    0.484   75.059    3.978
  195.201    0.261    0.461   76.254    4.793
  195.501    0.262    0.460   77.449    5.463
  195.801    0.232    0.459   78.645    5.779
  196.101    0.226    0.454   79.240    6.464
  196.401    0.222    0.459   79.232    6.587
  196.701    0.224    0.418   79.221    5.784
  197.001    0.262    0.430   85.238    4.628
  197.301    0.313    0.454   87.034    3.916
  197.601    0.349    0.474   82.209    3.703
  197.901    0.376    0.494   76.776    4.143
  198.201    0.391    0.493   77.974    4.810
  198.501    0.297    0.395   80.376    4.384
  198.801    0.327    0.420   79.162    3.922
  199.101    0.375    0.540   77.944    3.642
  199.401    0.371    0.556   77.938    3.576
  199.701    0.356    0.550   80.339    3.644
  200.001    0.329    0.500   86.958    4.001
  200.301    0.300    0.468   80.924    4.393
  200.601    0.294    0.494   80.914    4.155
  200.901    0.314    0.522   84.521    3.859
  201.201    0.314    0.476   86.918    3.650
  201.501    0.323    0.503   86.913    3.518
  201.801    0.326    0.542   87.507    3.585
  202.101    0.295    0.516   88.098    3.722
  202.401    0.266    0.481   86.888    4.164
  202.701    0.266    0.468   85.072    4.487
  203.001    0.265    0.451   84.459    4.927
  203.301    0.293    0.461   84.451    5.020
  203.601    0.283    0.491   84.444    5.310
  203.901    0.299    0.501   79.014    6.282
  204.201    0.289    0.447   72.381    7.569
  204.501    0.262    0.360   71.166    9.645
  204.801    0.253    0.369   72.362   10.788
  205.101    0.212    0.395   68.739   11.202
  205.401    0.175    0.366   65.118   10.597
  205.701    0.206    0.357   64.506    9.839
  206.001    0.227    0.362   71.124    8.640
  206.301    0.231    0.371   77.739    7.043
  206.601    0.248    0.389   81.947    5.635
  206.901    0.294    0.426   84.948    5.041
  207.201    0.318    0.496   83.736    5.638
  207.501    0.305    0.458   73.490    7.319
  207.801    0.328    0.336   60.833    8.820
  208.101    0.344    0.351   48.777    9.330
  208.401    0.348    0.433   63.224    8.992
  208.701    0.287    0.444   68.033    8.667
  209.001    0.270    0.440   68.025    8.832
  209.301    0.188    0.400   69.823    9.343
  209.601    0.213    0.332   69.812    9.521
  209.901    0.254    0.355   68.599    9.349
  210.201    0.290    0.373   69.796    8.521
  210.501    0.259    0.364   78.822    7.344
  210.801    0.210    0.373   89.655    6.693
  211.101    0.196    0.407  104.101    6.450
  211.401    0.193    0.462  104.695    6.698
  211.701    0.200    0.478   93.242    8.071
  212.001    0.230    0.424   80.585   11.079
  212.301    0.260    0.385   70.941   13.104
  212.601    0.283    0.309   64.307   15.214
  212.901    0.295    0.309   66.101   16.396
  213.201    0.300    0.345   66.698   16.712
  213.501    0.258    0.361   63.073   17.350
  213.801    0.252    0.352   61.259   19.049
  214.101    0.280    0.325   58.841   20.527
  214.401    0.299    0.306   55.220   23.391
  214.701    0.291    0.304   59.428   31.519
  215.001    0.294    0.298   60.620   44.907
  215.301    0.304    0.265   60.614   70.228
  215.601    0.290    0.255   73.855   96.407
  215.901    0.290    0.251   67.823  103.900
  216.201    0.310    0.268   88.895  105.882
  216.501    0.316    0.268   99.125  112.013
  216.801    0.315    0.274   92.492  112.059
  217.101    0.307    0.270   78.631  112.084
  217.401    0.315    0.266   57.540  110.060
  217.701    0.324    0.270   58.737  108.051
  218.001    0.322    0.282   68.967  104.140
  218.301    0.326    0.291   85.221   94.912
  218.601    0.313    0.296  100.268   84.908
  218.901    0.308    0.292   96.647   69.211
  219.201    0.314    0.297   68.933   45.966
  219.501    0.315    0.304   49.047   38.891
  219.801    0.313    0.309   49.039   38.187
  220.101    0.303    0.320   55.657   41.149
  220.401    0.297    0.338   82.149   48.670
  220.701    0.289    0.378   70.093   62.019
  221.001    0.279    0.369   58.641   76.152
  221.301    0.274    0.360   61.042   80.543
  221.601    0.274    0.383   60.431   83.626
  221.901    0.285    0.358   45.967  106.554
  222.201    0.300    0.361   36.323  119.202
  222.501    0.302    0.395   29.689  121.465
  222.801    0.278    0.363   94.727  128.486
  223.101    0.269    0.341   99.535  146.416
  223.401    0.276    0.386   91.095  179.766
  223.701    0.285    0.404   71.814  204.845
  224.001    0.290    0.369   54.339  224.905
  224.301    0.283    0.355   50.114  201.194
  224.601    0.285    0.412   55.525  133.626
  224.901    0.299    0.417   62.140   46.257
  225.201    0.300    0.375   68.759   35.657
  225.501    0.253    0.363   77.181   35.012
  225.801    0.251    0.386   70.548   42.981
  226.101    0.281    0.417   57.289   57.913
  226.401    0.293    0.375   46.438   68.499
  226.701    0.295    0.345   50.042   59.044
  227.001    0.305    0.381   54.854   43.043
  227.301    0.302    0.365   81.947   36.411
  227.601    0.272    0.357   78.324   26.543
  227.901    0.265    0.352   68.680   20.843
  228.201    0.281    0.352   61.444   20.466
  228.501    0.294    0.359   53.003   31.415
  228.801    0.300    0.377   48.779   54.932
  229.101    0.298    0.379   40.940   75.409
