~VERSION INFORMATION
 VERS.                 2.0:   CWLS LOG ASCII STANDARD -VERSION 2.0
 WRAP.                  NO:   ONE LINE PER DEPTH STEP
~WELL INFORMATION BLOCK
#MNEM.UNIT           DATA                    DESCRIPTION OF MNEMONIC
#---------    -------------------            -------------------------------
# Generated from Intellog Unique Number	CN_91_93/WELL/2766
WELL.         03-04-093-11W4                 : Well_name    - WELL
LOC .         AC/03-04-093-11W4/0            : Location     - LOCATION
UWI .         AC/03-04-093-11W400            : Uwi          - UNIQUE WELL ID
ENTR.         JO                             : Entered      - ENTERED BY
SRVC.         WESTERN ATLAS                  : Scn          - SERVICE COMPANY
DATE.         03\23\92                       : Date         - LOG DATE
STRT.M        0                              : top_depth    - START DEPTH
STOP.M        85                             : bot_depth    - STOP DEPTH
STEP.M        0.25                           : increment    - STEP LENGTH
 NULL. -999.2500:NULL Value
~CURVE INFORMATION BLOCK
#MNEM UNIT       ERCB CURVE CODE    CURVE DESCRIPTION
#-----------   ------------------   ----------------------------------
DEPT.M        00 001 00 00         : DEPTH        - DEPTH
GR  .API      00 310 00 00         : GR           - GAMMA RAY
NPHI.V/V      00 330 00 00         : PHIN         - NEUTRON POROSITY (SANDSTONE)
DPHI.V/V      00 890 00 00         : PHID         - DENSITY POROSITY (SANDSTONE)
ILD .OHMM     00 120 00 00         : RESD         - DEEP RESISTIVITY (DIL)
~PARAMETER INFORMATION
#MNEM.UNIT           DATA             DESCRIPTION OF MNEMONIC
#---------         -----------     ------------------------------
GL  .M        336.6                : gl           - GROUND LEVEL ELEVATION
EREF.M        336.6                : kb           - ELEVATION OF DEPTH REFERENCE
DATM.M        336.6                : datum        - DATUM ELEVATION
TDD .M        87                   : tdd          - TOTAL DEPTH DRILLER
RUN .         ONE                  : Run          - RUN NUMBER
ENG .         JO                   : Engineer     - RECORDING ENGINEER
WIT .         TIM                  : Witness      - WITNESSED BY
MUD .         GEL                  : Mud_type     - MUD TYPE
MATR.         SANDSTONE            : Logunit      - NEUTRON MATRIX
TMAX.C        7                    : BHT          - MAXIMUM RECORDED TEMPERATURE
BHTD.M        87                   : BHTDEP       - MAXIMUM RECORDED TEMPERATURE
RMT .C        12.5                 : MDTP         - TEMPERATURE OF MUD
MUDD.KG/M     1000                 : MWT          - MUD DENSITY
NEUT.         1                    : NEUTRON      - NEUTRON TYPE
RESI.         0                    : RESIST       - RESISTIVITY TYPE
RM  .OHMM     6.2                  : RM           - RESISTIVITY OF MUD
RMC .OHMM     6.2                  : RMC          - RESISTIVITY OF MUD CAKE
RMF .OHMM     6.2                  : RMF          - RESISTIVITY OF MUD FILTRATE
SUFT.C        4                    : SUFT         - SURFACE TEMPERATURE
~A  DEPTH       GR     PHIN     PHID     RESD
    0.000  220.637    0.525    0.008    0.000
    0.250  211.909    0.535    0.007    0.000
    0.500   61.345    0.551    0.003    0.000
    0.750   52.620    0.574   -0.003    0.000
    1.000   51.774    0.602   -0.007    0.000
    1.250   46.259    0.620   -0.009    0.000
    1.500   37.243    0.631   -0.010    0.000
    1.750   45.148    0.588   -0.011    0.000
    2.000   46.345    0.604   -0.011    0.000
    2.250   30.616    0.653   -0.014    0.000
    2.500   36.774    0.662   -0.016    0.000
    2.750   38.265    0.583   -0.016    0.000
    3.000   42.672    0.576   -0.016    0.000
    3.250   40.072    0.549   -0.013    0.000
    3.500   29.596    0.495   -0.013    0.000
    3.750   20.868    0.508   -0.016    0.000
    4.000   27.901    0.574   -0.017    0.000
    4.250   34.934    0.556   -0.014    0.000
    4.500   28.835    0.551   -0.010    0.000
    4.750   32.953    0.591   -0.012    0.000
    5.000   31.812    0.611   -0.018    0.000
    5.250   44.976    0.644   -0.022    0.000
    5.500   49.672    0.565   -0.022    0.000
    5.750   43.865    0.591   -0.016    0.000
    6.000   36.018    0.504   -0.010    0.000
    6.250   33.710    0.564   -0.013    0.000
    6.500   28.776    0.591   -0.017    0.000
    6.750   34.644    0.555   -0.017    0.000
    7.000   29.710    0.450   -0.014    0.000
    7.250   44.625    0.596   -0.011    0.000
    7.500   67.999    0.618   -0.009    0.000
    7.750   74.160    0.621   -0.009    0.000
    8.000   66.599    0.612   -0.008    0.000
    8.250   60.792    0.644   -0.009    0.000
    8.500   57.904    0.693   -0.012    0.000
    8.750   63.477    0.571   -0.017    0.000
    9.000   77.222    0.510   -0.022    0.000
    9.250   70.251    0.549   -0.026    0.000
    9.500   68.526    0.550   -0.028    0.000
    9.750   78.478    0.554   -0.025    0.000
   10.000   63.913    0.490    0.009    0.000
   10.250   64.526    0.439    0.094    0.000
   10.500   72.143    0.428    0.226    0.000
   10.750   66.631    0.379    0.296    0.000
   11.000   67.533    0.482    0.328    0.000
   11.250   88.867    0.451    0.341    0.000
   11.500   82.766    0.355    0.316    0.000
   11.750   80.467    0.370    0.300    0.000
   12.000  101.504    0.435    0.308   18.135
   12.250  117.875    0.495    0.344   10.811
   12.500  109.447    0.493    0.372    9.061
   12.750  114.723    0.471    0.325    9.256
   13.000  117.677    0.491    0.277    9.200
   13.250  113.031    0.499    0.264    9.397
   13.500  112.477    0.485    0.275    8.606
   13.750  113.388    0.469    0.267    7.617
   14.000  117.205    0.482    0.218    7.520
   14.250  102.933    0.406    0.212    6.887
   14.500  102.378    0.468    0.270   12.302
   14.750  113.205    0.458    0.273    8.235
   15.000  107.109    0.452    0.273    8.643
   15.250  117.641    0.499    0.267    9.646
   15.500  115.336    0.510    0.252    8.309
   15.750  102.528    0.453    0.265    7.206
   16.000  115.687    0.497    0.278    8.265
   16.250  125.638    0.441    0.278    6.254
   16.500  108.158    0.453    0.267    6.216
   16.750  125.988    0.435    0.257    6.705
   17.000  114.053    0.443    0.256    7.849
   17.250  112.329    0.485    0.248    7.801
   17.500  121.991    0.446    0.249    7.048
   17.750  129.316    0.483    0.241    7.053
   18.000  119.712    0.466    0.214    6.730
   18.250  106.610    0.430    0.174    6.334
   18.500   78.623    0.388    0.166    7.776
   18.750   92.076    0.433    0.275   15.920
   19.000  108.160    0.468    0.311    7.949
   19.250  100.305    0.495    0.322    4.674
   19.500  113.761    0.557    0.305    3.891
   19.750  106.784    0.492    0.280    3.613
   20.000   98.934    0.521    0.271    4.589
   20.250  100.715    0.572    0.269    5.597
   20.500  106.872    0.453    0.270    5.639
   20.750  115.072    0.426    0.275    6.646
   21.000  127.653    0.475    0.262    4.828
   21.250  130.308    0.485    0.233    5.425
   21.500  123.915    0.473    0.207    6.265
   21.750   81.045    0.380    0.132    7.234
   22.000   82.244    0.535    0.281   12.922
   22.250   91.317    0.555    0.346    6.630
   22.500   92.514    0.597    0.359    3.071
   22.750   90.209    0.625    0.362    2.718
   23.000   84.402    0.610    0.360    2.702
   23.250   83.261    0.652    0.353    2.543
   23.500   82.415    0.684    0.344    2.477
   23.750   88.864    0.710    0.333    2.530
   24.000   85.100    0.595    0.306    2.804
   24.250   80.169    0.486    0.278    3.490
   24.500   83.116    0.532    0.282    4.256
   24.750   94.526    0.537    0.286    4.560
   25.000   88.431    0.494    0.282    4.851
   25.250   98.671    0.516    0.261    4.504
   25.500   84.985    0.491    0.253    4.477
   25.750   75.090    0.450    0.242    4.271
   26.000   79.499    0.469    0.217    5.929
   26.250   79.817    0.469    0.220    6.057
   26.500   85.100    0.534    0.268    6.805
   26.750  105.267    0.496    0.298   11.049
   27.000  107.339    0.510    0.302    4.004
   27.250   99.781    0.544    0.300    3.821
   27.500   99.522    0.546    0.292    3.572
   27.750  112.096    0.572    0.292    3.526
   28.000   94.030    0.539    0.281    3.651
   28.250  101.650    0.507    0.271    3.781
   28.500   94.381    0.559    0.297    3.783
   28.750  101.122    0.578    0.310    4.081
   29.000  103.486    0.532    0.306    4.084
   29.250   93.010    0.454    0.324    4.715
   29.500   92.164    0.522    0.299    4.816
   29.750  100.073    0.474    0.221    4.564
   30.000   95.138    0.451    0.250    4.856
   30.250   94.876    0.543    0.269    7.993
   30.500  111.541    0.589    0.274    5.278
   30.750  113.614    0.526    0.269    3.886
   31.000  113.351    0.476    0.255    4.337
   31.250  108.420    0.512    0.227    4.282
   31.500   95.315    0.462    0.157    4.403
   31.750   82.501    0.336    0.164    7.150
   32.000   76.111    0.446    0.215   15.145
   32.250   88.399    0.458    0.240    8.150
   32.500   83.173    0.470    0.237    9.738
   32.750   79.409    0.433    0.218   10.014
   33.000   72.727    0.405    0.190   10.368
   33.250   61.667    0.368    0.172    9.961
   33.500   69.576    0.408    0.152   14.701
   33.750   61.140    0.376    0.159   14.026
   34.000   68.175    0.436    0.248   18.946
   34.250   85.714    0.422    0.262   13.669
   34.500   83.700    0.400    0.256   14.744
   34.750   84.605    0.401    0.253   16.455
   35.000   91.346    0.414    0.256   15.593
   35.250   87.287    0.410    0.261   14.281
   35.500   63.680    0.430    0.263   13.350
   35.750   58.165    0.393    0.272   16.844
   36.000   42.725    0.374    0.274   18.800
   36.250   30.204    0.360    0.288   23.561
   36.500   21.479    0.354    0.287   40.671
   36.750   19.174    0.325    0.298   56.075
   37.000   28.249    0.364    0.318  186.251
   37.250   30.322    0.414    0.327   80.046
   37.500   30.643    0.400    0.326   82.319
   37.750   30.380    0.400    0.323   80.707
   38.000   34.787    0.400    0.324   85.293
   38.250   40.361    0.431    0.321   76.537
   38.500   40.390    0.425    0.303   59.517
   38.750   34.872    0.417    0.294   44.437
   39.000   36.069    0.393    0.293   46.636
   39.250   38.725    0.417    0.285   38.297
   39.500   42.842    0.389    0.282   52.447
   39.750   30.613    0.410    0.292   69.877
   40.000   40.567    0.459    0.304   30.649
   40.250   46.138    0.441    0.312   31.306
   40.500   39.747    0.437    0.316   36.897
   40.750   33.651    0.386    0.314   36.179
   41.000   47.104    0.380    0.307   37.718
   41.250   47.714    0.419    0.304   35.497
   41.500   43.075    0.425    0.303   43.287
   41.750   37.557    0.403    0.301   29.980
   42.000   33.793    0.387    0.285   38.870
   42.250   41.701    0.440    0.300   30.435
   42.500   32.101    0.425    0.360   63.594
   42.750   38.845    0.388    0.352   19.304
   43.000   36.245    0.396    0.351   26.981
   43.250   36.274    0.395    0.352   29.302
