~VERSION INFORMATION
 VERS.                 2.0:   CWLS LOG ASCII STANDARD -VERSION 2.0
 WRAP.                  NO:   ONE LINE PER DEPTH STEP
~WELL INFORMATION BLOCK
#MNEM.UNIT           DATA                    DESCRIPTION OF MNEMONIC
#---------    -------------------            -------------------------------
# Generated from Intellog Unique Number	CN_91_93/WELL/2766
WELL.         03-04-093-11W4                 : Well_name    - WELL
LOC .         AC/03-04-093-11W4/0            : Location     - LOCATION
UWI .         AC/03-04-093-11W400            : Uwi          - UNIQUE WELL ID
ENTR.         JO                             : Entered      - ENTERED BY
SRVC.         WESTERN ATLAS                  : Scn          - SERVICE COMPANY
DATE.         03\23\92                       : Date         - LOG DATE
STRT.M        0                              : top_depth    - START DEPTH
STOP.M        85                             : bot_depth    - STOP DEPTH
STEP.M        0.25                           : increment    - STEP LENGTH
 NULL. -999.2500:NULL Value
~CURVE INFORMATION BLOCK
#MNEM UNIT       ERCB CURVE CODE    CURVE DESCRIPTION
#-----------   ------------------   ----------------------------------
DEPT.M        00 001 00 00         : DEPTH        - DEPTH
GR  .API      00 310 00 00         : GR           - GAMMA RAY
NPHI.V/V      00 330 00 00         : PHIN         - NEUTRON POROSITY (SANDSTONE)
DPHI.V/V      00 890 00 00         : PHID         - DENSITY POROSITY (SANDSTONE)
ILD .OHMM     00 120 00 00         : RESD         - DEEP RESISTIVITY (DIL)
~PARAMETER INFORMATION
#MNEM.UNIT           DATA             DESCRIPTION OF MNEMONIC
#---------         -----------     ------------------------------
GL  .M        336.6                : gl           - GROUND LEVEL ELEVATION
EREF.M        336.6                : kb           - ELEVATION OF DEPTH REFERENCE
DATM.M        336.6                : datum        - DATUM ELEVATION
TDD .M        87                   : tdd          - TOTAL DEPTH DRILLER
RUN .         ONE                  : Run          - RUN NUMBER
ENG .         JO                   : Engineer     - RECORDING ENGINEER
WIT .         TIM                  : Witness      - WITNESSED BY
MUD .         GEL                  : Mud_type     - MUD TYPE
MATR.         SANDSTONE            : Logunit      - NEUTRON MATRIX
TMAX.C        7                    : BHT          - MAXIMUM RECORDED TEMPERATURE
BHTD.M        87                   : BHTDEP       - MAXIMUM RECORDED TEMPERATURE
RMT .C        12.5                 : MDTP         - TEMPERATURE OF MUD
MUDD.KG/M     1000                 : MWT          - MUD DENSITY
NEUT.         1                    : NEUTRON      - NEUTRON TYPE
RESI.         0                    : RESIST       - RESISTIVITY TYPE
RM  .OHMM     6.2                  : RM           - RESISTIVITY OF MUD
RMC .OHMM     6.2                  : RMC          - RESISTIVITY OF MUD CAKE
RMF .OHMM     6.2                  : RMF          - RESISTIVITY OF MUD FILTRATE
SUFT.C        4                    : SUFT         - SURFACE TEMPERATURE
~A  DEPTH       GR     PHIN     PHID     RESD
# ...
   43.500   44.766    0.418    0.351   29.524
   43.750   35.458    0.436    0.348   27.976
   44.000   33.444    0.428    0.342   30.591
   44.250   30.261    0.426    0.324   35.809
   44.500   31.749    0.404    0.316   51.432
   44.750   34.113    0.411    0.308   19.551
   45.000   42.316    0.405    0.320   25.006
   45.250   32.713    0.415    0.319   37.668
   45.500   37.703    0.423    0.309   38.738
   45.750   41.821    0.427    0.303   17.345
   46.000   39.805    0.409    0.304   16.660
   46.250   43.919    0.410    0.291   18.467
   46.500   55.621    0.379    0.264   18.991
   46.750   67.618    0.434    0.248   14.870
   47.000   69.690    0.420    0.250    9.109
   47.250   79.933    0.435    0.260   13.722
   47.500   66.244    0.414    0.252    9.700
   47.750   61.608    0.401    0.242   15.431
   48.000   64.844    0.388    0.215   16.307
   48.250   67.500    0.398    0.218   13.392
   48.500   45.060    0.390    0.240   12.265
   48.750   49.463    0.405    0.257   16.795
   49.000   58.834    0.399    0.272   36.808
   49.250   54.778    0.391    0.279   10.725
   49.500   55.680    0.411    0.292   13.169
   49.750   48.709    0.407    0.291   10.033
   50.000   41.731    0.399    0.295   14.608
   50.250   56.060    0.450    0.303   28.125
   50.500   52.296    0.446    0.296   15.239
   50.750   53.492    0.379    0.286   16.326
   51.000   36.593    0.381    0.284   32.747
   51.250   41.584    0.401    0.293   54.644
   51.500   55.623    0.401    0.293   30.845
   51.750   65.869    0.405    0.297   29.230
   52.000   62.394    0.376    0.302   25.176
   52.250   44.331    0.369    0.301   15.741
   52.500   39.399    0.372    0.286   21.117
   52.750   26.875    0.369    0.282  105.595
   53.000   43.249    0.399    0.290  117.048
   53.250   47.072    0.438    0.295   16.003
   53.500   41.560    0.454    0.305   10.934
   53.750   50.924    0.479    0.301   15.918
   54.000   36.652    0.432    0.306   20.222
   54.250   37.265    0.387    0.319   25.514
   54.500   33.501    0.372    0.321   32.860
   54.750   31.490    0.401    0.313  217.286
   55.000   49.317    0.407    0.307  207.300
   55.250   75.905    0.437    0.314  151.621
   55.500   59.884    0.440    0.319   22.806
   55.750   41.235    0.408    0.312   23.775
   56.000   42.723    0.366    0.289   27.454
   56.250   62.888    0.393    0.285  180.309
   56.500   84.222    0.444    0.298  129.210
   56.750   56.819    0.482    0.293   15.950
   57.000   48.969    0.390    0.298   11.905
   57.250   42.867    0.395    0.305   67.762
   57.500   39.106    0.406    0.309   22.021
   57.750   32.713    0.379    0.296   39.336
   58.000   32.159    0.359    0.286   47.969
   58.250   54.366    0.421    0.279  171.745
   58.500   62.277    0.388    0.284   64.400
   58.750   62.012    0.465    0.302   83.501
   59.000   50.952    0.393    0.303   19.968
   59.250   53.024    0.407    0.303  130.249
   59.500   45.175    0.432    0.319   34.971
   59.750   48.706    0.423    0.319   20.424
   60.000   45.814    0.426    0.337   97.370
   60.250   46.427    0.382    0.331   14.252
   60.500   29.240    0.377    0.328   39.383
   60.750   27.227    0.395    0.321  275.018
   61.000   30.177    0.385    0.320  246.786
   61.250   36.043    0.396    0.317  259.039
   61.500   42.197    0.392    0.312  277.516
   61.750   58.276    0.451    0.290  198.853
   62.000   78.444    0.420    0.284   24.883
   62.250   63.588    0.478    0.305   31.610
   62.500   53.696    0.443    0.303   12.518
   62.750   68.024    0.447    0.302   76.270
   63.000   46.748    0.517    0.326   29.795
   63.250   19.928    0.353    0.329  233.624
   63.500   24.048    0.393    0.330  240.259
   63.750   33.996    0.389    0.334  107.559
   64.000   37.236    0.396    0.333  194.773
   64.250   41.645    0.392    0.333   56.756
   64.500   28.829    0.431    0.333   97.322
   64.750   27.399    0.430    0.337   25.776
   65.000   35.892    0.407    0.327  186.237
   65.250   30.088    0.403    0.327   96.211
   65.500   18.442    0.379    0.327   91.173
   65.750   23.432    0.371    0.328  282.898
   66.000   29.589    0.373    0.327  288.935
   66.250   32.245    0.431    0.320  315.940
   66.500   17.681    0.460    0.314  128.576
   66.750   22.969    0.386    0.318  157.877
   67.000   24.743    0.436    0.320  126.152
   67.250   24.484    0.410    0.314  107.928
   67.500   34.730    0.379    0.280  278.575
   67.750   56.350    0.390    0.262  157.247
   68.000   66.593    0.439    0.290  110.395
   68.250   47.949    0.464    0.298   11.108
   68.500   57.608    0.434    0.261   11.040
   68.750   79.232    0.309    0.226   22.294
   69.000   93.269    0.370    0.259   73.053
   69.250   86.297    0.402    0.290   26.839
   69.500   65.310    0.400    0.311    7.715
   69.750   44.035    0.406    0.333    8.209
   70.000   28.890    0.410    0.325   21.628
   70.250   31.251    0.386    0.307  107.403
   70.500   53.169    0.384    0.239  123.180
   70.750   87.052    0.401    0.213   26.411
   71.000   93.501    0.452    0.220   51.550
   71.250   77.481    0.425    0.197    7.243
   71.500  109.029    0.383    0.164    7.867
   71.750  115.186    0.388    0.158   10.200
   72.000  134.183    0.413    0.190    7.511
   72.250  120.498    0.431    0.201    7.937
   72.500  114.402    0.422    0.195    6.343
   72.750  119.097    0.375    0.178    6.984
   73.000  110.370    0.439    0.175    8.459
   73.250  124.117    0.418    0.164    4.940
   73.500  118.599    0.414    0.166    5.256
   73.750  114.251    0.402    0.179    5.406
   74.000  118.074    0.437    0.201    6.962
   74.250  119.855    0.487    0.200    5.127
   74.500  116.966    0.441    0.208    4.631
   74.750  110.575    0.436    0.250    5.764
   75.000   77.916    0.436    0.280    5.352
   75.250   56.351    0.450    0.318    5.106
   75.500   52.292    0.466    0.335    6.945
   75.750   45.026    0.507    0.322    6.537
   76.000   49.144    0.468    0.319    8.889
   76.250   53.840    0.411    0.317   15.987
   76.500   46.577    0.412    0.312   27.041
   76.750   42.226    0.440    0.292   38.053
   77.000   57.141    0.432    0.275   30.826
   77.250   61.544    0.423    0.275   12.631
   77.500   51.366    0.437    0.266   15.721
   77.750   62.187    0.359    0.256   12.309
   78.000   59.006    0.375    0.254   13.551
   78.250   62.537    0.382    0.223    8.358
   78.500   71.321    0.367    0.198    8.954
   78.750  109.289    0.555    0.216    8.145
   79.000  115.447    0.505    0.195    6.921
   79.250  120.729    0.490    0.195    4.417
   79.500  112.004    0.441    0.208    4.830
   79.750  111.741    0.416    0.211    4.671
   80.000  107.685    0.449    0.199    4.583
   80.250  113.551    0.436    0.165    4.584
   80.500  101.321    0.418    0.107    4.682
   80.750   57.284    0.386   -0.014    5.084
   81.000   51.477    0.356   -0.006    5.019
   81.250   32.828    0.190   -0.006    8.965
   81.500   29.355    0.120    0.000    9.219
   81.750   21.795    0.095    0.020   97.576
   82.000   31.162    0.117    0.029  219.761
   82.250   45.202    0.149    0.035   44.618
   82.500   60.405    0.191    0.036   24.177
   82.750   57.517    0.250    0.050   28.689
   83.000   61.051    0.225    0.056   18.184
   83.250   62.828    0.244    0.039   20.713
   83.500   64.317    0.245    0.031   16.666
   83.750   65.221    0.220    0.039   13.318
   84.000   50.949    0.220    0.042   21.774
   84.250   43.975    0.221    0.032   14.280
   84.500   54.510    0.240    0.016   11.808
   84.750   63.588    0.222    0.008   13.358
   85.000   41.437    0.200    0.009   13.832
