~VERSION INFORMATION
 VERS.                 2.0:   CWLS LOG ASCII STANDARD -VERSION 2.0
 WRAP.                  NO:   ONE LINE PER DEPTH STEP
~WELL INFORMATION BLOCK
#MNEM.UNIT           DATA                    DESCRIPTION OF MNEMONIC
#---------    -------------------            -------------------------------
# Generated from Intellog Unique Number	CN_94_101/WELL/5050
WELL.         15-31-097-10W4                 : Well_name    - WELL
LOC .         AC/15-31-097-10W4/0            : Location     - LOCATION
UWI .         AC/15-31-097-10W400            : Uwi          - UNIQUE WELL ID
ENTR.         TIM                            : Entered      - ENTERED BY
SRVC.         SCHLUMBERGER                   : Scn          - SERVICE COMPANY
DATE.         08/11/92                       : Date         - LOG DATE
STRT.M        0                              : top_depth    - START DEPTH
STOP.M        60                             : bot_depth    - STOP DEPTH
STEP.M        0.25                           : increment    - STEP LENGTH
 NULL. -999.2500:NULL Value
~CURVE INFORMATION BLOCK
#MNEM UNIT       ERCB CURVE CODE    CURVE DESCRIPTION
#-----------   ------------------   ----------------------------------
DEPT.M        00 001 00 00         : DEPTH        - DEPTH
GR  .API      00 310 00 00         : GR           - GAMMA RAY
DPHI.V/V      00 890 00 00         : PHID         - DENSITY POROSITY (SANDSTONE)
NPHI.V/V      00 330 00 00         : PHIN         - NEUTRON POROSITY (SANDSTONE)
ILD .OHMM     00 120 00 00         : RESD         - DEEP RESISTIVITY (DIL)
~PARAMETER INFORMATION
#MNEM.UNIT           DATA             DESCRIPTION OF MNEMONIC
#---------         -----------     ------------------------------
GL  .M        254.2                : gl           - GROUND LEVEL ELEVATION
EREF.M        254.2                : kb           - ELEVATION OF DEPTH REFERENCE
DATM.M        254.2                : datum        - DATUM ELEVATION
TDD .M        65.8                 : tdd          - TOTAL DEPTH DRILLER
RUN .         ONE                  : Run          - RUN NUMBER
ENG .         BILL                 : Engineer     - RECORDING ENGINEER
WIT .         JIM                  : Witness      - WITNESSED BY
MUD .         GEL                  : Mud_type     - MUD TYPE
MATR.         SANDSTONE            : Logunit      - NEUTRON MATRIX
TMAX.C        10                   : BHT          - MAXIMUM RECORDED TEMPERATURE
BHTD.M        65.8                 : BHTDEP       - MAXIMUM RECORDED TEMPERATURE
RMT .C        10                   : MDTP         - TEMPERATURE OF MUD
MUDD.KG/M     1090                 : MWT          - MUD DENSITY
NEUT.         1                    : NEUTRON      - NEUTRON TYPE
RESI.         0                    : RESIST       - RESISTIVITY TYPE
RM  .OHMM     13.1                 : RM           - RESISTIVITY OF MUD
RMC .OHMM     13.1                 : RMC          - RESISTIVITY OF MUD CAKE
RMF .OHMM     13.1                 : RMF          - RESISTIVITY OF MUD FILTRATE
SUFT.C        4                    : SUFT         - SURFACE TEMPERATURE
~A  DEPTH       GR     PHID     PHIN     RESD
    0.000   35.355    0.232    0.394  848.090
    0.250   34.092    0.236    0.399  835.713
    0.500   34.073    0.232    0.396  811.889
    0.750   35.296    0.206    0.380  755.804
    1.000   39.004    0.179    0.341  713.585
    1.250   45.808    0.198    0.321  703.255
    1.500   58.195    0.217    0.312  673.561
    1.750   69.957    0.231    0.338  645.121
    2.000   64.982    0.246    0.356  600.557
    2.250   59.997    0.255    0.378  543.395
    2.500   59.979    0.268    0.401  477.889
    2.750   45.690    0.261    0.415  408.495
    3.000   43.816    0.227    0.420  349.136
    3.250   46.899    0.226    0.426  334.394
    3.500   49.982    0.223    0.428  334.233
    3.750   58.027    0.222    0.404  302.420
    4.000   60.490    0.235    0.387  258.506
    4.250   53.029    0.249    0.372  237.251
    4.500   54.251    0.267    0.378  230.488
    4.750   54.848    0.268    0.393  217.639
    5.000   57.316    0.246    0.407  202.605
    5.250   69.082    0.257    0.416  183.299
    5.500   62.862    0.262    0.384  161.202
    5.750   57.877    0.247    0.368  139.767
    6.000   77.091    0.181    0.342  122.918
    6.250   85.136    0.185    0.336  106.574
    6.500   74.569    0.184    0.338   95.057
    6.750   67.728    0.090    0.277   89.769
    7.000   59.026   -0.003    0.218   94.977
    7.250   52.185    0.012    0.160  111.005
    7.500   45.965    0.094    0.206  158.314
    7.750   39.123    0.202    0.239  252.990
    8.000   39.721    0.217    0.272  242.308
    8.250   46.526    0.231    0.275  210.088
    8.500   53.951    0.209    0.282  143.039
    8.750   56.413    0.210    0.289  115.494
    9.000   61.357    0.220    0.294   89.370
    9.250   70.643    0.261    0.299   75.314
    9.500   62.557    0.273    0.309   72.134
    9.750   61.303    0.269    0.323   95.816
   10.000   55.082    0.246    0.336  140.595
   10.250   51.342    0.243    0.364  136.587
   10.500   50.704    0.250    0.375  150.791
   10.750   73.635    0.256    0.362  157.306
   11.000   63.693    0.260    0.322  176.174
   11.250   50.649    0.263    0.290  285.562
   11.500   65.517    0.268    0.295  348.337
   11.750   81.626    0.274    0.318  328.879
   12.000   58.033    0.275    0.343  281.123
   12.250   64.838    0.264    0.371  280.953
   12.500   62.339    0.267    0.365  301.510
   12.750   62.320    0.255    0.343  318.965
   13.000   69.125    0.247    0.343  328.008
   13.250   66.005    0.240    0.342  327.929
   13.500   62.886    0.234    0.217  323.143
   13.750   57.906    0.236    0.215  313.931
   14.000   53.546    0.239    0.243  292.175
   14.250   59.730    0.240    0.288  279.906
   14.500   73.353    0.241    0.333  246.133
   14.750   72.715    0.237    0.373  222.679
   15.000   73.937    0.240    0.403  216.357
   15.250   73.303    0.233    0.405  204.296
   15.500   70.795    0.239    0.399  204.198
   15.750   70.776    0.240    0.405  201.218
   16.000   77.586    0.177    0.413  190.000
   16.250   85.011    0.195    0.413  174.378
   16.500   83.752    0.205    0.412  160.021
   16.750   78.767    0.210    0.414  184.406
   17.000   75.032    0.214    0.418  255.625
   17.250   71.912    0.219    0.416  282.243
   17.500   65.071    0.228    0.413  320.622
   17.750   60.091    0.236    0.416  329.673
   18.000   58.828    0.242    0.411  311.294
   18.250   55.088    0.250    0.415  285.734
   18.500   53.204    0.272    0.425  244.242
   18.750   57.533    0.297    0.422  217.875
   19.000   61.852    0.298    0.397  211.664
   19.250   66.800    0.290    0.344  202.702
   19.500   67.402    0.279    0.304  191.402
   19.750   71.106    0.289    0.341  185.946
   20.000   76.049    0.297    0.382  191.218
   20.250   71.065    0.298    0.411  188.427
   20.500   68.565    0.306    0.425  168.085
   20.750   71.033    0.305    0.450  156.455
   21.000   72.875    0.307    0.460  158.620
   21.250   68.515    0.313    0.452  180.210
   21.500   62.915    0.319    0.428  213.637
   21.750   55.449    0.320    0.407  229.269
   22.000   53.565    0.319    0.399  235.769
   22.250   52.927    0.318    0.394  260.288
   22.500   54.770    0.314    0.391  291.507
   22.750   55.992    0.304    0.386  321.900
   23.000   54.113    0.288    0.371  365.671
   23.250   54.715    0.266    0.361  360.335
   23.500   53.456    0.246    0.291  355.076
   23.750   50.957    0.233    0.282  359.944
   24.000   48.462    0.227    0.300  397.472
   24.250   45.338    0.201    0.286  558.869
   24.500   41.594    0.195    0.218  691.407
   24.750   39.715    0.192    0.203  752.624
   25.000   39.076    0.188    0.193  763.034
   25.250   39.678    0.185    0.187  741.282
   25.500   44.007    0.192    0.190  651.920
   25.750   47.706    0.195    0.196  573.331
   26.000   47.072    0.195    0.206  483.159
   26.250   45.813    0.208    0.221  379.179
   26.500   44.554    0.214    0.242  301.874
   26.750   43.916    0.230    0.252  250.804
   27.000   43.898    0.233    0.259  205.432
   27.250   43.255    0.237    0.267  170.678
   27.500   46.338    0.243    0.276  135.865
   27.750   64.311    0.189    0.278  109.715
   28.000   90.344    0.087    0.277   62.981
   28.250   82.263    0.090    0.272   49.433
   28.500   79.143    0.121    0.267   42.255
   28.750   98.349    0.161    0.255   40.461
   29.000   91.512    0.184    0.240   44.679
   29.250   58.615    0.173    0.231   61.942
   29.500   46.192    0.134    0.250  133.415
   29.750   49.895    0.112    0.287  124.214
   30.000   88.333    0.130    0.311   48.565
   30.250   88.315    0.151    0.337   40.349
   30.500   95.115    0.146    0.340   37.562
   30.750   96.962    0.126    0.318   34.473
   31.000  103.767    0.156    0.317   31.639
   31.250  117.395    0.202    0.292   29.871
   31.500  132.263    0.205    0.281   28.206
   31.750  131.624    0.186    0.265   27.015
   32.000  117.340    0.134    0.267   27.005
   32.250  112.355    0.114    0.280   28.162
   32.500  106.139    0.163    0.295   28.964
   32.750   88.749    0.197    0.290   31.528
   33.000   74.465    0.224    0.297   34.320
   33.250   64.522    0.250    0.299   40.111
   33.500   60.162    0.273    0.303   46.218
   33.750  103.562    0.275    0.288   53.261
   34.000  102.924    0.246    0.281  103.861
   34.250  114.070    0.204    0.288  194.050
   34.500  116.533    0.226    0.294  170.678
   34.750  102.869    0.240    0.296  121.270
   35.000   85.484    0.248    0.290   89.921
   35.250   76.777    0.242    0.285  156.493
   35.500   72.417    0.230    0.275  250.080
   35.750   87.906    0.212    0.275  253.539
   36.000   92.850    0.174    0.279  158.505
   36.250  130.672    0.168    0.312   84.734
   36.500  129.413    0.195    0.360   52.973
   36.750  114.504    0.217    0.385   40.412
   37.000  130.613    0.236    0.368   98.937
   37.250  154.169    0.239    0.342  101.742
   37.500  152.910    0.210    0.336   67.329
   37.750  154.748    0.221    0.330   60.053
   38.000  157.827    0.243    0.317   63.545
   38.250  156.568    0.262    0.309   77.505
   38.500  158.406    0.235    0.296  294.863
   38.750  159.017    0.239    0.288  354.606
   39.000  160.240    0.243    0.294  397.137
   39.250  159.601    0.243    0.305  451.140
   39.500  142.216    0.247    0.315  477.313
   39.750   58.458    0.249    0.308  431.830
   40.000   29.903    0.246    0.260  390.729
   40.250   28.024    0.250    0.234  333.991
   40.500   31.723    0.247    0.242  273.570
   40.750   33.565    0.236    0.268  227.288
   41.000   36.653    0.212    0.273  156.965
   41.250   99.906    0.148    0.283  102.394
   41.500   96.166    0.153    0.293   60.474
   41.750   89.941    0.167    0.306   40.020
   42.000   63.251    0.188    0.316   28.839
   42.250   52.689    0.203    0.328   29.238
   42.500   83.063    0.223    0.343   30.066
   42.750   79.324    0.245    0.357   30.479
   43.000   63.799    0.253    0.323   31.788
   43.250   52.616    0.250    0.305   32.697
