~VERSION INFORMATION
 VERS.                 2.0:   CWLS LOG ASCII STANDARD -VERSION 2.0
 WRAP.                  NO:   ONE LINE PER DEPTH STEP
~WELL INFORMATION BLOCK
#MNEM.UNIT           DATA                    DESCRIPTION OF MNEMONIC
#---------    -------------------            -------------------------------
# Generated from Intellog Unique Number	utf_inj/WELL/619
WELL.         AO-36                          : Well_name    - WELL              
LOC .         AC/15-07-093-12W4/0            : Location     - LOCATION          
UWI .         AC/15-07-093-12W400            : Uwi          - UNIQUE WELL ID    
ENTR.         JHS                            : Entered      - ENTERED BY        
SRVC.         SCHLUMBERGER                   : Scn          - SERVICE COMPANY   
STRT.M        2                              : top_depth    - START DEPTH       
STOP.M        166                            : bot_depth    - STOP DEPTH        
STEP.M        0.25                           : increment    - STEP LENGTH       
NULL.         -999.250                       : null         - NULL VALUE       
~CURVE INFORMATION BLOCK
#MNEM UNIT       ERCB CURVE CODE    CURVE DESCRIPTION
#-----------   ------------------   ----------------------------------
DEPT.M        00 001 00 00         : DEPTH        - DEPTH                       
GR  .API      00 310 00 00         : GR           - GAMMA RAY                   
DPHI.V/V      00 890 00 00         : PHID         - DENSITY POROSITY (SANDSTONE)
NPHI.V/V      00 330 00 00         : PHIN         - NEUTRON POROSITY (SANDSTONE)
ILD .OHMM     00 120 00 00         : RESD         - DEEP RESISTIVITY (DIL)      
SP  .MV       00 010 00 00         : SP           - SPONTANEOUS POTENTIAL       
CALI.MM       00 280 01 00         : CAL          - CALIPER                     
~PARAMETER INFORMATION       
#MNEM.UNIT           DATA             DESCRIPTION OF MNEMONIC
#---------         -----------     ------------------------------
GL  .M        432.8                : gl           - GROUND LEVEL ELEVATION      
EREF.M        432.8                : kb           - ELEVATION OF DEPTH REFERENCE
DATM.M        432.8                : datum        - DATUM ELEVATION             
TDD .M        169                  : tdd          - TOTAL DEPTH DRILLER         
RUN .         ONE                  : Run          - RUN NUMBER                  
ENG .         BILL                 : Engineer     - RECORDING ENGINEER          
WIT .         JIM                  : Witness      - WITNESSED BY                
MUD .         GEL                  : Mud_type     - MUD TYPE                    
MATR.         SANDSTONE            : Logunit      - NEUTRON MATRIX              
TMAX.C        6.5                  : BHT          - MAXIMUM RECORDED TEMPERATURE
BHTD.M        151.49               : BHTDEP       - MAXIMUM RECORDED TEMPERATURE
MATR.         1                    : LOGUNIT      - NEUTRON MATRIX              
RMT .C        25                   : MDTP         - TEMPERATURE OF MUD          
NEUT.         1                    : NEUTRON      - NEUTRON TYPE                
RESI.         0                    : RESIST       - RESISTIVITY TYPE            
RMC .OHMM     0.25                 : RMC          - RESISTIVITY OF MUD CAKE     
RMF .OHMM     0.25                 : RMF          - RESISTIVITY OF MUD FILTRATE 
SUFT.C        15                   : SUFT         - SURFACE TEMPERATURE         
~A  DEPTH       GR     PHID     PHIN     RESD       SP      CAL
# ...
   95.750  105.102    0.281    0.631   19.728    0.000  133.537
   96.000   99.601    0.271    0.546   19.378    0.000  129.836
   96.250  108.214    0.220    0.541   28.830    0.000  131.116
   96.500  103.935    0.230    0.600   32.924    0.000  130.536
   96.750   99.661    0.276    0.627   29.976    0.000  136.787
   97.000  104.594    0.296    0.605   23.023    0.000  136.819
   97.250  122.403    0.294    0.588   20.965    0.000  136.866
   97.500  116.902    0.278    0.609   19.451    0.000  136.280
   97.750  118.762    0.282    0.642   18.044    0.000  135.689
   98.000  123.695    0.273    0.591   18.059    0.000  135.104
   98.250  123.710    0.189    0.503   19.858    0.000  132.641
   98.500  109.621    0.182    0.594   26.383    0.000  127.701
   98.750  121.296    0.251    0.612   26.904    0.000  126.488
   99.000  126.223    0.285    0.609   18.104    0.000  123.425
   99.250  143.419    0.289    0.620   19.179    0.000  124.695
   99.500  126.877    0.284    0.602   19.185    0.000  135.307
   99.750  125.061    0.302    0.579   17.800    0.000  136.597
  100.000  127.535    0.310    0.591   16.515    0.000  136.624
  100.250  120.807    0.295    0.615   15.913    0.000  136.033
  100.500  119.596    0.300    0.648   15.336    0.000  131.720
  100.750  118.389    0.307    0.656   14.777    0.000  127.392
  101.000  129.450    0.311    0.587   13.710    0.000  131.782
  101.250  125.176    0.315    0.581   13.208    0.000  133.063
  101.500  131.949    0.300    0.599   12.489    0.000  133.721
  101.750  122.154    0.244    0.599   12.737    0.000  144.333
  102.000  115.426    0.221    0.641   15.397    0.000  131.301
  102.250  121.581    0.236    0.612   19.697    0.000  119.518
  102.500  120.987    0.285    0.626   19.341    0.000  127.641
  102.750  134.503    0.290    0.540   17.609    0.000  124.562
  103.000  123.481    0.283    0.523   16.655    0.000  125.843
  103.250  134.543    0.296    0.582   16.661    0.000  130.861
  103.500  135.176    0.303    0.633   16.672    0.000  122.178
  103.750  111.272    0.250    0.615   17.325    0.000  120.970
  104.000  102.704    0.255    0.628   21.342    0.000  123.500
  104.250  116.833    0.290    0.603   20.956    0.000  129.135
  104.500  127.895    0.285    0.587   18.031    0.000  125.429
  104.750  139.570    0.276    0.590   17.046    0.000  125.465
  105.000  121.187    0.271    0.521   18.052    0.000  127.368
  105.250  138.383    0.280    0.626   20.233    0.000  119.945
  105.500  132.269    0.302    0.585   20.249    0.000  128.058
  105.750  118.793    0.232    0.495   21.441    0.000  131.827
  106.000  110.225    0.145    0.415   30.738    0.000  120.666
  106.250  126.199    0.179    0.441   25.454    0.000  124.435
  106.500  126.214    0.250    0.518   18.822    0.000  120.734
  106.750  128.075    0.248    0.586   17.466    0.000  122.636
  107.000  138.523    0.253    0.565   17.480    0.000  123.917
  107.250  138.548    0.264    0.576   17.486    0.000  130.174
  107.500  143.475    0.256    0.598   16.849    0.000  134.570
  107.750  141.041    0.248    0.614   15.633    0.000  130.869
  108.000  142.288    0.259    0.599   14.783    0.000  124.679
  108.250  138.628    0.289    0.581   14.244    0.000  121.606
  108.500  133.127    0.281    0.597   14.803    0.000  121.642
  108.750  125.172    0.241    0.552   17.558    0.000  122.917
  109.000  119.672    0.223    0.511   22.891    0.000  121.093
  109.250  129.506    0.261    0.668   20.454    0.000  120.507
  109.500  131.372    0.279    0.699   19.337    0.000  121.160
  109.750  127.706    0.277    0.715   19.356    0.000  121.814
  110.000  127.113    0.276    0.602   18.644    0.000  121.855
  110.250  128.973    0.282    0.577   16.974    0.000    0.000
  110.500  125.926    0.289    0.579   16.358    0.000    0.000
  110.750  135.147    0.284    0.590   16.060    0.000    0.000
  111.000  114.311    0.284    0.613   16.690    0.000    0.000
  111.250  120.465    0.280    0.633   17.022    0.000    0.000
  111.500  121.717    0.257    0.638   15.796    0.000    0.000
  111.750  129.093    0.277    0.636   15.801    0.000    0.000
  112.000  116.231    0.315    0.636   17.378    0.000    0.000
  112.250  103.982    0.265    0.662   20.614    0.000    0.000
  112.500  109.523    0.275    0.608   23.998    0.000    0.000
  112.750  123.038    0.321    0.557   20.255    0.000    0.000
  113.000  124.290    0.305    0.500   16.778    0.000    0.000
  113.250  124.919    0.295    0.521   14.164    0.000    0.000
  113.500  129.233    0.336    0.562   12.654    0.000    0.000
  113.750  128.026    0.408    0.724   12.662    0.000    0.000
  114.000  124.979    0.442    0.629   14.467    0.000    0.000
  114.250  127.452    0.419    0.496   13.935    0.000    0.000
  114.500  133.606    0.378    0.508   13.178    0.000    0.000
  114.750  144.673    0.329    0.531   14.491    0.000    0.000
  115.000  127.517    0.316    0.576   18.898    0.000    0.000
  115.250  122.011    0.316    0.604   18.209    0.000    0.000
  115.500  131.238    0.327    0.580   16.268    0.000    0.000
  115.750  133.103    0.324    0.612   17.557    0.000    0.000
  116.000  120.849    0.288    0.627   18.945    0.000    0.000
  116.250  114.117    0.247    0.591   20.836    0.000    0.000
  116.500  101.868    0.286    0.560   16.309    0.000    0.000
  116.750  120.296    0.388    0.606   13.011    0.000    0.000
  117.000  117.862    0.419    0.637   15.142  138.256    0.000
  117.250   91.500    0.456    0.484   14.051  137.433    0.000
  117.500  100.108    0.489    0.500   15.162  137.425    0.000
  117.750   84.179    0.463    0.456   17.320  137.418    0.000
  118.000   95.859    0.422    0.431   17.331  135.775    0.000
  118.250   86.672    0.447    0.517   17.018  134.136    0.000
  118.500   87.306    0.540    0.683   13.572  130.861    0.000
  118.750  106.347    0.579    0.580    9.850  129.222    0.000
  119.000  105.140    0.350    0.630   10.431  130.029    0.000
  119.250   95.959    0.336    0.558   14.392  130.022    0.000
  119.500   97.819    0.330    0.567   19.489  128.379    0.000
  119.750   94.772    0.310    0.613   20.636  126.739    0.000
  120.000   87.431    0.213    0.611   24.478  129.181    0.000
  120.250   89.430    0.361    0.617   15.059  127.539    0.000
  120.500  107.705    0.557    0.557   14.289  133.245    0.000
  120.750   96.107    0.508    0.513   14.858  134.868    0.000
  121.000  108.282    0.455    0.452   14.899  133.227    0.000
  121.250  104.612    0.423    0.540   15.641  131.587    0.000
  121.500  110.083    0.392    0.584   16.119  130.762    0.000
  121.750  114.335    0.418    0.637   15.145  129.123    0.000
  122.000  110.053    0.377    0.544   12.280  121.768    0.000
  122.250  110.647    0.372    0.503   14.801  117.677    0.000
  122.500  119.166    0.423    0.599   16.577  124.200    0.000
  122.750  124.030    0.428    0.655   15.725  129.904    0.000
  123.000  118.525    0.421    0.635   14.912  130.714    0.000
  123.250  137.412    0.410    0.584   14.953  129.072    0.000
  123.500  142.884    0.401    0.573   14.577  129.882    0.000
  123.750  106.286    0.426    0.669   14.215  127.423    0.000
  124.000  111.758    0.477    0.542   14.520  123.335    0.000
  124.250  122.717    0.321    0.475   15.809  125.776    0.000
  124.500  107.460    0.235    0.452   20.331  124.951    0.000
  124.750   86.715    0.312    0.444   15.888   55.557    0.000
  125.000   74.506    0.398    0.419   25.031   35.142    0.000
  125.250   47.054    0.408    0.405   24.417   17.990    0.000
  125.500   43.380    0.387    0.413   21.902   14.717    0.000
  125.750   50.069    0.370    0.442   17.769   29.402    0.000
  126.000   43.347    0.405    0.489   17.808   22.864    0.000
  126.250   48.819    0.444    0.470   17.206   35.917    0.000
  126.500   56.728    0.434    0.437   16.472   54.683    0.000
  126.750   65.861    0.423    0.450   16.513   47.329    0.000
