~VERSION INFORMATION
 VERS.                 2.0:   CWLS LOG ASCII STANDARD -VERSION 2.0
 WRAP.                  NO:   ONE LINE PER DEPTH STEP
~WELL INFORMATION BLOCK
#MNEM.UNIT           DATA                    DESCRIPTION OF MNEMONIC
#---------    -------------------            -------------------------------
# Generated from Intellog Unique Number	utf_inj/WELL/619
WELL.         AO-36                          : Well_name    - WELL              
LOC .         AC/15-07-093-12W4/0            : Location     - LOCATION          
UWI .         AC/15-07-093-12W400            : Uwi          - UNIQUE WELL ID    
ENTR.         JHS                            : Entered      - ENTERED BY        
SRVC.         SCHLUMBERGER                   : Scn          - SERVICE COMPANY   
STRT.M        2                              : top_depth    - START DEPTH       
STOP.M        166                            : bot_depth    - STOP DEPTH        
STEP.M        0.25                           : increment    - STEP LENGTH       
NULL.         -999.250                       : null         - NULL VALUE       
~CURVE INFORMATION BLOCK
#MNEM UNIT       ERCB CURVE CODE    CURVE DESCRIPTION
#-----------   ------------------   ----------------------------------
DEPT.M        00 001 00 00         : DEPTH        - DEPTH                       
GR  .API      00 310 00 00         : GR           - GAMMA RAY                   
DPHI.V/V      00 890 00 00         : PHID         - DENSITY POROSITY (SANDSTONE)
NPHI.V/V      00 330 00 00         : PHIN         - NEUTRON POROSITY (SANDSTONE)
ILD .OHMM     00 120 00 00         : RESD         - DEEP RESISTIVITY (DIL)      
SP  .MV       00 010 00 00         : SP           - SPONTANEOUS POTENTIAL       
CALI.MM       00 280 01 00         : CAL          - CALIPER                     
~PARAMETER INFORMATION       
#MNEM.UNIT           DATA             DESCRIPTION OF MNEMONIC
#---------         -----------     ------------------------------
GL  .M        432.8                : gl           - GROUND LEVEL ELEVATION      
EREF.M        432.8                : kb           - ELEVATION OF DEPTH REFERENCE
DATM.M        432.8                : datum        - DATUM ELEVATION             
TDD .M        169                  : tdd          - TOTAL DEPTH DRILLER         
RUN .         ONE                  : Run          - RUN NUMBER                  
ENG .         BILL                 : Engineer     - RECORDING ENGINEER          
WIT .         JIM                  : Witness      - WITNESSED BY                
MUD .         GEL                  : Mud_type     - MUD TYPE                    
MATR.         SANDSTONE            : Logunit      - NEUTRON MATRIX              
TMAX.C        6.5                  : BHT          - MAXIMUM RECORDED TEMPERATURE
BHTD.M        151.49               : BHTDEP       - MAXIMUM RECORDED TEMPERATURE
MATR.         1                    : LOGUNIT      - NEUTRON MATRIX              
RMT .C        25                   : MDTP         - TEMPERATURE OF MUD          
NEUT.         1                    : NEUTRON      - NEUTRON TYPE                
RESI.         0                    : RESIST       - RESISTIVITY TYPE            
RMC .OHMM     0.25                 : RMC          - RESISTIVITY OF MUD CAKE     
RMF .OHMM     0.25                 : RMF          - RESISTIVITY OF MUD FILTRATE 
SUFT.C        15                   : SUFT         - SURFACE TEMPERATURE         
~A  DEPTH       GR     PHID     PHIN     RESD       SP      CAL
    2.000   43.563    0.000    0.000    0.000    0.000    0.000
    2.250   42.351    0.000    0.000    0.000    0.000    0.000
    2.500   38.082    0.000    0.000    0.000    0.000    0.000
    2.750   44.231    0.000    0.000    0.000    0.000    0.000
    3.000   54.066    0.000    0.000    0.000    0.000    0.000
    3.250   48.570    0.000    0.000    0.000    0.000    0.000
    3.500   43.678    0.000    0.000    0.000    0.000    0.000
    3.750   44.925    0.000    0.000    0.000    0.000    0.000
    4.000   51.692    0.000    0.000    0.000    0.000    0.000
    4.250   45.578    0.000    0.000    0.000    0.000    0.000
    4.500   40.691    0.000    0.000    0.000    0.000    0.000
    4.750   38.257    0.000    0.000    0.000    0.000    0.000
    5.000   48.097    0.000    0.000    0.000    0.000    0.000
    5.250   55.483    0.000    0.000    0.000    0.000    0.000
    5.500   50.590    0.000    0.000    0.000    0.000    0.000
    5.750   49.384    0.000    0.000    0.000    0.000    0.000
    6.000   57.378    0.000    0.000    0.000    0.000    0.000
    6.250   54.336    0.000    0.000    0.000    0.000    0.000
    6.500   53.129    0.000    0.000    0.000    0.000    0.000
    6.750   56.830    0.000    0.000    0.000    0.000    0.000
    7.000   59.912    0.000    0.000    0.000    0.000    0.000
    7.250   60.545    0.000    0.000    0.000    0.000    0.000
    7.500   60.565    0.000    0.000    0.000    0.000    0.000
    7.750   48.317    0.000    0.000    0.000    0.000    0.000
    8.000   52.630    0.000    0.000    0.000    0.000    0.000
    8.250   57.563    0.000    0.000    0.000    0.000    0.000
    8.500   50.830    0.000    0.000    0.000    0.000    0.000
    8.750   48.401    0.000    0.000    0.000    0.000    0.000
    9.000   45.963    0.000    0.000    0.000    0.000    0.000
    9.250   45.374    0.000    0.000    0.000    0.000    0.000
    9.500   50.297    0.000    0.000    0.000    0.000    0.000
    9.750   47.250    0.000    0.000    0.000    0.000    0.000
   10.000   54.017    0.000    0.000    0.000    0.000    0.000
   10.250   53.424    0.000    0.000    0.000    0.000    0.000
   10.500   47.309    0.000    0.000    0.000    0.000    0.000
   10.750   49.170    0.000    0.000    0.000    0.000    0.000
   11.000   60.236    0.000    0.000   11.200    0.000    0.000
   11.250   49.823    0.000    0.000   12.086    0.000    0.000
   11.500   59.668    0.000    0.000   12.559    0.000    0.000
   11.750   56.002    0.000    0.000   12.570    0.000    0.000
   12.000   49.275    0.000    0.000   12.343    0.000  205.149
   12.250   53.589    0.000    0.000   11.452    0.000  206.430
   12.500   71.403    0.000    0.000   10.231    0.000  207.073
   12.750   65.897    0.000    0.000    9.494    0.000  207.114
   13.000   64.690    0.000    0.000    9.499    0.000  207.778
   13.250   74.525    0.000    0.000    9.686    0.000  207.809
   13.500   69.638    0.000    0.000    9.878    0.000  207.835
   13.750   58.002    0.000    0.000   10.267    0.000  207.872
   14.000   58.641    0.000    0.000   10.467    0.000  207.908
   14.250   59.269    0.000    0.000   10.476    0.000  206.084
   14.500   53.155    0.000    0.000   10.287    0.000  200.511
   14.750   53.180    0.000    0.000    9.912    0.000  188.728
   15.000   52.582    0.000    0.000   10.497    0.000  190.631
   15.250   51.988    0.000    0.000   11.543    0.000  185.686
   15.500   52.013    0.000    0.000   10.916    0.000  191.321
   15.750   48.961    0.000    0.000   10.321    0.000  205.042
   16.000   58.187    0.000    0.000   10.134    0.000  206.950
   16.250   47.774    0.000    0.000   10.532    0.000  206.987
   16.500   46.567    0.000    0.000   10.944    0.000  206.396
   16.750   52.721    0.000    0.000   11.376    0.000  208.298
   17.000   50.901    0.000    0.000   11.166    0.000  209.574
   17.250   44.787    0.000    0.000   10.966    0.000  208.999
   17.500   51.554    0.000    0.000   10.770    0.000  206.536
   17.750   49.734    0.000    0.000    9.991    0.000  205.946
   18.000   46.692    0.000    0.000    9.445    0.000  201.628
   18.250   49.161    0.000    0.000    9.274    0.000  201.042
   18.500   60.841    0.000    0.000    8.605    0.000  201.078
   18.750   84.784    0.000    0.000    7.985    0.000  201.110
   19.000   88.485    0.000    0.000    7.270    0.000  200.529
   19.250   92.185    0.000    0.000    6.744    0.000  202.427
   19.500  103.860    0.000    0.000    7.142    0.000  204.951
   19.750   93.452    0.000    0.000   41.436    0.000  204.988
   20.000   89.792    0.332    0.000   61.660    0.000  203.775
   20.250   76.316    0.337    0.000   88.381    0.000  202.567
   20.500   73.888    0.321    0.000   78.960    0.000  202.598
   20.750   67.768    0.308    0.000   71.877    0.000  203.879
   21.000   71.469    0.293    0.000   63.023    0.000  204.548
   21.250   88.665    0.278    0.000   61.885    0.000  203.952
   21.500   77.643    0.278    0.000   69.360    0.000  202.739
   21.750   75.828    0.311    0.000   68.106    0.000  197.799
   22.000   72.781    0.516    0.000   58.580    0.000  185.389
   22.250   69.728    0.409    0.000   55.398    0.000  169.252
   22.500   68.522    0.348    0.000   55.425    0.000  179.241
   22.750   69.155    0.393    0.000   49.525    0.000  191.719
   23.000   61.200    0.425    0.000   56.557    0.000  199.215
   23.250   63.674    0.394    0.000   71.011    0.000  174.991
   23.500   61.240    0.337    0.000   65.874    0.000  173.788
   23.750   64.941    0.365    0.000   67.175    0.000  217.369
   24.000   61.894    0.397    0.000   65.961    0.000  220.511
   24.250   59.460    0.411    0.000   64.780    0.000  226.146
   24.500   71.758    0.356    0.000   64.823    0.000  182.633
   24.750   66.258    0.338    0.000   59.008    0.000  169.601
   25.000   71.793    0.397    0.000   55.792    0.000  185.811
   25.250   70.592    0.458    0.000   60.223    0.000  199.532
   25.500   87.782    0.522    0.000   63.767    0.000  170.337
   25.750  100.684    0.458    0.000   42.105    0.000  168.497
   26.000  101.931    0.402    0.000   31.734    0.000  160.447
   26.250  106.245    0.361    0.000   26.288    0.000  158.622
   26.500  111.791    0.379    0.000   26.305    0.000  159.270
   26.750  107.517    0.384    0.000   27.858    0.000  159.312
   27.000   98.331    0.358    0.000   27.359    0.000  159.965
   27.250   94.057    0.356    0.000   25.864    0.000  168.088
   27.500  114.938    0.333    0.000   27.913    0.000  168.742
   27.750  110.664    0.308    0.000   28.464    0.000  159.447
   28.000  107.003    0.330    0.000   25.919    0.000  160.106
   28.250  112.544    0.351    0.000   26.431    0.000  151.433
   28.500   94.162    0.348    0.000   28.525    0.000  155.202
   28.750   92.955    0.362    0.000   30.780    0.000  155.233
   29.000   89.294    0.397    0.000   31.997    0.000  155.897
   29.250   80.721    0.329    0.000   32.624    0.000  155.306
   29.500   84.427    0.262    0.000   35.886    0.000  157.204
   29.750  100.396    0.313    0.000   27.558    0.000  157.250
   30.000  114.524    0.341    0.000   29.185    0.000  157.276
   30.250  116.385    0.349    0.000   29.761    0.000  156.064
   30.500  114.564    0.346    0.000   29.224    0.000  154.861
   30.750  113.357    0.334    0.000   28.158    0.000  155.520
   31.000  112.151    0.349    0.000   28.715    0.000  154.934
   31.250  109.108    0.357    0.000   27.150    0.000  154.343
   31.500  113.417    0.350    0.000   25.194    0.000  161.217
   31.750  116.504    0.363    0.000   24.272    0.000  155.655
   32.000  115.303    0.354    0.000   26.195    0.000  148.849
   32.250  108.570    0.340    0.000   26.221    0.000  153.867
   32.500  104.296    0.332    0.000   25.738    0.000  154.520
   32.750  109.837    0.329    0.000   25.756    0.000  160.150
   33.000  116.609    0.334    0.000   26.765    0.000  156.459
