~VERSION INFORMATION
 VERS.                 2.0:   CWLS LOG ASCII STANDARD -VERSION 2.0
 WRAP.                  NO:   ONE LINE PER DEPTH STEP
~WELL INFORMATION BLOCK
#MNEM.UNIT           DATA                    DESCRIPTION OF MNEMONIC
#---------    -------------------            -------------------------------
# Generated from Intellog Unique Number	utf_inj/WELL/619
WELL.         AO-36                          : Well_name    - WELL              
LOC .         AC/15-07-093-12W4/0            : Location     - LOCATION          
UWI .         AC/15-07-093-12W400            : Uwi          - UNIQUE WELL ID    
ENTR.         JHS                            : Entered      - ENTERED BY        
SRVC.         SCHLUMBERGER                   : Scn          - SERVICE COMPANY   
STRT.M        2                              : top_depth    - START DEPTH       
STOP.M        166                            : bot_depth    - STOP DEPTH        
STEP.M        0.25                           : increment    - STEP LENGTH       
NULL.         -999.250                       : null         - NULL VALUE       
~CURVE INFORMATION BLOCK
#MNEM UNIT       ERCB CURVE CODE    CURVE DESCRIPTION
#-----------   ------------------   ----------------------------------
DEPT.M        00 001 00 00         : DEPTH        - DEPTH                       
GR  .API      00 310 00 00         : GR           - GAMMA RAY                   
DPHI.V/V      00 890 00 00         : PHID         - DENSITY POROSITY (SANDSTONE)
NPHI.V/V      00 330 00 00         : PHIN         - NEUTRON POROSITY (SANDSTONE)
ILD .OHMM     00 120 00 00         : RESD         - DEEP RESISTIVITY (DIL)      
SP  .MV       00 010 00 00         : SP           - SPONTANEOUS POTENTIAL       
CALI.MM       00 280 01 00         : CAL          - CALIPER                     
~PARAMETER INFORMATION       
#MNEM.UNIT           DATA             DESCRIPTION OF MNEMONIC
#---------         -----------     ------------------------------
GL  .M        432.8                : gl           - GROUND LEVEL ELEVATION      
EREF.M        432.8                : kb           - ELEVATION OF DEPTH REFERENCE
DATM.M        432.8                : datum        - DATUM ELEVATION             
TDD .M        169                  : tdd          - TOTAL DEPTH DRILLER         
RUN .         ONE                  : Run          - RUN NUMBER                  
ENG .         BILL                 : Engineer     - RECORDING ENGINEER          
WIT .         JIM                  : Witness      - WITNESSED BY                
MUD .         GEL                  : Mud_type     - MUD TYPE                    
MATR.         SANDSTONE            : Logunit      - NEUTRON MATRIX              
TMAX.C        6.5                  : BHT          - MAXIMUM RECORDED TEMPERATURE
BHTD.M        151.49               : BHTDEP       - MAXIMUM RECORDED TEMPERATURE
MATR.         1                    : LOGUNIT      - NEUTRON MATRIX              
RMT .C        25                   : MDTP         - TEMPERATURE OF MUD          
NEUT.         1                    : NEUTRON      - NEUTRON TYPE                
RESI.         0                    : RESIST       - RESISTIVITY TYPE            
RMC .OHMM     0.25                 : RMC          - RESISTIVITY OF MUD CAKE     
RMF .OHMM     0.25                 : RMF          - RESISTIVITY OF MUD FILTRATE 
SUFT.C        15                   : SUFT         - SURFACE TEMPERATURE         
~A  DEPTH       GR     PHID     PHIN     RESD       SP      CAL
# ...
   33.250  111.717    0.327    0.000   26.282    0.000  156.490
   33.500  114.201    0.325    0.000   27.312    0.000  156.522
   33.750  108.081    0.327    0.000   30.616    0.000  155.319
   34.000  104.416    0.324    0.650   30.063    0.000  151.628
   34.250  108.735    0.347    0.632   33.689    0.000  150.410
   34.500  105.693    0.347    0.685   30.677    0.000  154.174
   34.750  105.094    0.342    0.643   28.458    0.000  153.588
   35.000  105.114    0.346    0.604   26.912    0.000  157.362
   35.250   97.773    0.323    0.605   29.593    0.000  149.302
   35.500  102.087    0.258    0.666   30.753    0.000  148.094
   35.750  111.922    0.268    0.672   30.773    0.000  143.154
   36.000  114.395    0.348    0.685   21.102    0.000  143.807
   36.250  110.735    0.350    0.648   18.853    0.000  150.069
   36.500  111.373    0.327    0.526   19.969    0.000  153.838
   36.750  111.388    0.315    0.664   22.804    0.000  156.980
   37.000  107.114    0.305    0.641   24.611    0.000  157.016
   37.250  100.387    0.317    0.569   23.270    0.000  157.669
   37.500   96.113    0.340    0.548   24.194    0.000  152.107
   37.750   97.973    0.358    0.615   26.107    0.000  152.144
   38.000   99.833    0.366    0.544   28.175    0.000  147.826
   38.250   96.786    0.343    0.528   30.987    0.000  155.322
   38.500   87.605    0.326    0.521   29.294    0.000  159.091
   38.750   91.305    0.311    0.663   26.671    0.000  152.906
   39.000  103.594    0.308    0.667   22.518    0.000  151.694
   39.250  112.202    0.316    0.698   20.498    0.000  143.643
   39.500  113.448    0.324    0.675   18.313    0.000  138.081
   39.750  116.540    0.319    0.712   17.982    0.000  143.711
   40.000  114.102    0.310    0.657   21.330    0.000  149.968
   40.250  104.307    0.306    0.586   26.280    0.000  154.981
   40.500  103.714    0.301    0.553   26.794    0.000  151.912
   40.750   81.650    0.318    0.488   24.395    0.000  152.565
   41.000   71.242    0.331    0.503   26.328    0.000  146.376
   41.250   78.623    0.354    0.607   42.253    0.000  154.499
   41.500  100.118    0.321    0.599   40.713    0.000  156.402
   41.750   89.091    0.263    0.596   30.110    0.000  158.315
   42.000   77.456    0.262    0.623   25.418    0.000  157.097
   42.250  109.379    0.340    0.633   31.909    0.000  157.128
   42.500  110.013    0.344    0.630   25.452    0.000  158.414
   42.750  102.058    0.340    0.653   23.173    0.000  159.072
   43.000   97.171    0.348    0.641   24.081    0.000  158.482
   43.250  107.005    0.344    0.620   21.111    0.000  156.030
   43.500  108.866    0.348    0.667   18.165    0.000  157.927
   43.750  113.180    0.347    0.644   17.502    0.000  153.609
   44.000  112.586    0.345    0.605   18.186    0.000  139.333
   44.250  108.312    0.366    0.538   18.198    0.000  136.259
   44.500  112.626    0.401    0.716   17.206    0.000  139.406
   44.750  108.352    0.396    0.759   16.271    0.000  139.442
   45.000  101.629    0.378    0.718   16.282    0.000  139.474
   45.250  104.103    0.373    0.674   17.575    0.000  135.783
   45.500  101.669    0.365    0.628   18.609    0.000  143.901
   45.750  106.592    0.342    0.595   21.255    0.000  141.449
   46.000  107.225    0.314    0.600   20.480    0.000  148.323
   46.250  106.632    0.292    0.664   16.968    0.000  153.336
   46.500  112.786    0.313    0.744   17.630    0.000  136.571
   46.750  102.378    0.323    0.696   15.169    0.000  147.188
   47.000   95.042    0.331    0.743   15.761    0.000  146.597
   47.250  104.258    0.218    0.529   15.479    0.000  153.482
   47.500   95.077    0.159    0.467   26.788    0.000  154.135
   47.750   93.870    0.244    0.586   51.935    0.000  154.166
   48.000  104.936    0.321    0.681   40.650    0.000  153.581
   48.250  106.183    0.331    0.666   30.637    0.000  138.071
   48.500   99.456    0.315    0.619   23.091    0.000  138.719
   48.750   87.816    0.198    0.575   30.678    0.000  143.732
   49.000  105.016    0.252    0.616   26.895    0.000  148.123
   49.250  116.691    0.308    0.661   24.032    0.000  145.049
   49.500  113.031    0.336    0.588   18.455    0.000  136.993
   49.750  116.118    0.338    0.588   14.445    0.000  134.541
   50.000  118.592    0.347    0.599   14.184    0.000  134.578
   50.250  111.255    0.374    0.552   13.669    0.000  134.619
   50.500  108.203    0.260    0.602   17.157    0.000  132.157
   50.750   92.274    0.159    0.617   22.367    0.000  141.525
   51.000  104.563    0.198    0.558   31.455    0.000  147.787
   51.250  124.826    0.321    0.512   24.159    0.000  147.196
   51.500  127.304    0.321    0.457   18.907    0.000  138.518
   51.750  126.097    0.319    0.442   16.891    0.000  134.200
   52.000  132.247    0.304    0.540   17.225    0.000  133.620
   52.250  136.566    0.298    0.661   17.242    0.000  138.628
   52.500  134.745    0.299    0.687   17.250    0.000  144.257
   52.750  147.647    0.293    0.648   16.939    0.000  142.428
   53.000  142.760    0.281    0.631   16.950    0.000  151.800
   53.250  140.940    0.289    0.556   17.614    0.000  151.209
   53.500  127.464    0.286    0.597   17.962    0.000  150.619
   53.750  121.350    0.281    0.600   17.974    0.000  149.411
   54.000  120.143    0.283    0.546   17.649    0.000  146.964
   54.250  119.550    0.291    0.525   17.006    0.000  146.379
   54.500  121.410    0.291    0.660   18.703    0.000  140.189
   54.750  120.821    0.238    0.629   22.185    0.000  135.866
   55.000  123.904    0.197    0.529   20.977    0.000  143.367
   55.250  136.192    0.322    0.492   17.051    0.000  145.892
   55.500  134.985    0.338    0.498   13.860    0.000  150.278
   55.750   98.205    0.374    0.583   13.869    0.000  152.180
   56.000   96.993    0.351    0.611   18.081    0.000  150.978
   56.250   92.105    0.323    0.591   20.652    0.000  147.277
   56.500   84.759    0.302    0.609   17.107    0.000  142.337
   56.750   79.872    0.292    0.619   31.936    0.000  149.833
   57.000   81.737    0.315    0.598   33.827    0.000  154.229
   57.250   77.458    0.341    0.596   33.855    0.000  156.126
   57.500   83.004    0.323    0.620   33.872    0.000  152.425
   57.750   84.864    0.313    0.638   33.894    0.000  157.438
   58.000   97.153    0.317    0.617   29.158    0.000  163.078
   58.250  102.080    0.310    0.632   21.565    0.000  150.668
   58.500   86.764    0.313    0.661   19.266    0.000  142.612
   58.750   84.331    0.346    0.612   20.021    0.000  140.788
   59.000   89.871    0.336    0.529   16.898    0.000  141.441
   59.250   83.144    0.266    0.569   18.588    0.000  139.606
   59.500   75.189    0.134    0.573   25.651    0.000  135.294
   59.750   80.730    0.218    0.532   27.161    0.000  131.598
   60.000   92.405    0.283    0.573   28.769    0.000  133.500
   60.250   96.106    0.305    0.592   26.692    0.000  139.125
   60.500  105.327    0.313    0.595   23.400    0.000  133.563
   60.750  119.461    0.298    0.600   22.977    0.000  133.604
   61.000  117.027    0.287    0.535   22.989    0.000  135.497
   61.250  115.825    0.303    0.569   23.004    0.000  139.887
   61.500  109.706    0.309    0.590   22.588    0.000  137.436
   61.750  107.891    0.309    0.567   21.765    0.000  138.716
   62.000  106.679    0.296    0.566   21.372    0.000  135.637
   62.250  110.993    0.321    0.590   19.835    0.000  143.138
   62.500   95.672    0.291    0.619   19.471    0.000  143.175
   62.750   86.491    0.201    0.611   21.013    0.000  132.636
   63.000   77.923    0.240    0.543   28.993    0.000  134.539
   63.250   79.170    0.265    0.516   27.413    0.000  133.331
   63.500   92.690    0.309    0.531   24.499    0.000  132.129
   63.750  101.298    0.311    0.546   23.160    0.000  131.538
   64.000  111.746    0.319    0.575   20.688    0.000  132.191
   64.250   98.271    0.327    0.645   17.137    0.000  133.466
