~VERSION INFORMATION
 VERS.                 2.0:   CWLS LOG ASCII STANDARD -VERSION 2.0
 WRAP.                  NO:   ONE LINE PER DEPTH STEP
~WELL INFORMATION BLOCK
#MNEM.UNIT           DATA                    DESCRIPTION OF MNEMONIC
#---------    -------------------            -------------------------------
# Generated from Intellog Unique Number	utf_inj/WELL/619
WELL.         AO-36                          : Well_name    - WELL              
LOC .         AC/15-07-093-12W4/0            : Location     - LOCATION          
UWI .         AC/15-07-093-12W400            : Uwi          - UNIQUE WELL ID    
ENTR.         JHS                            : Entered      - ENTERED BY        
SRVC.         SCHLUMBERGER                   : Scn          - SERVICE COMPANY   
STRT.M        2                              : top_depth    - START DEPTH       
STOP.M        166                            : bot_depth    - STOP DEPTH        
STEP.M        0.25                           : increment    - STEP LENGTH       
NULL.         -999.250                       : null         - NULL VALUE       
~CURVE INFORMATION BLOCK
#MNEM UNIT       ERCB CURVE CODE    CURVE DESCRIPTION
#-----------   ------------------   ----------------------------------
DEPT.M        00 001 00 00         : DEPTH        - DEPTH                       
GR  .API      00 310 00 00         : GR           - GAMMA RAY                   
DPHI.V/V      00 890 00 00         : PHID         - DENSITY POROSITY (SANDSTONE)
NPHI.V/V      00 330 00 00         : PHIN         - NEUTRON POROSITY (SANDSTONE)
ILD .OHMM     00 120 00 00         : RESD         - DEEP RESISTIVITY (DIL)      
SP  .MV       00 010 00 00         : SP           - SPONTANEOUS POTENTIAL       
CALI.MM       00 280 01 00         : CAL          - CALIPER                     
~PARAMETER INFORMATION       
#MNEM.UNIT           DATA             DESCRIPTION OF MNEMONIC
#---------         -----------     ------------------------------
GL  .M        432.8                : gl           - GROUND LEVEL ELEVATION      
EREF.M        432.8                : kb           - ELEVATION OF DEPTH REFERENCE
DATM.M        432.8                : datum        - DATUM ELEVATION             
TDD .M        169                  : tdd          - TOTAL DEPTH DRILLER         
RUN .         ONE                  : Run          - RUN NUMBER                  
ENG .         BILL                 : Engineer     - RECORDING ENGINEER          
WIT .         JIM                  : Witness      - WITNESSED BY                
MUD .         GEL                  : Mud_type     - MUD TYPE                    
MATR.         SANDSTONE            : Logunit      - NEUTRON MATRIX              
TMAX.C        6.5                  : BHT          - MAXIMUM RECORDED TEMPERATURE
BHTD.M        151.49               : BHTDEP       - MAXIMUM RECORDED TEMPERATURE
MATR.         1                    : LOGUNIT      - NEUTRON MATRIX              
RMT .C        25                   : MDTP         - TEMPERATURE OF MUD          
NEUT.         1                    : NEUTRON      - NEUTRON TYPE                
RESI.         0                    : RESIST       - RESISTIVITY TYPE            
RMC .OHMM     0.25                 : RMC          - RESISTIVITY OF MUD CAKE     
RMF .OHMM     0.25                 : RMF          - RESISTIVITY OF MUD FILTRATE 
SUFT.C        15                   : SUFT         - SURFACE TEMPERATURE         
~A  DEPTH       GR     PHID     PHIN     RESD       SP      CAL
# ...
   64.500  101.971    0.329    0.673   13.930    0.000  134.747
   64.750  100.151    0.320    0.545   13.422    0.000  141.636
   65.000   85.449    0.273    0.524   20.743    0.000  136.064
   65.250   78.108    0.184    0.521   24.613    0.000  137.339
   65.500   78.741    0.232    0.509   26.061    0.000  137.376
   65.750   88.576    0.287    0.584   30.334    0.000  138.039
   66.000   79.394    0.243    0.635   27.622    0.000  142.420
   66.250   78.801    0.291    0.579   25.144    0.000  154.275
   66.500   77.594    0.335    0.617   27.659    0.000  153.690
   66.750   93.568    0.335    0.632   29.286    0.000  153.731
   67.000   89.903    0.333    0.653   27.691    0.000  151.897
   67.250   93.603    0.315    0.663   27.190    0.000  148.195
   67.500  104.051    0.327    0.627   26.199    0.000  146.988
   67.750  105.298    0.361    0.645   20.123    0.000  150.767
   68.000  108.999    0.341    0.623   14.333    0.000  158.258
   68.250  107.792    0.323    0.568   14.071    0.000  147.092
   68.500   90.022    0.267    0.555   17.009    0.000  145.262
   68.750   88.816    0.277    0.564   21.353    0.000  155.874
   69.000   88.222    0.325    0.587   26.805    0.000  160.887
   69.250   91.309    0.321    0.610   28.387    0.000  164.028
   69.500   99.922    0.325    0.636   27.352    0.000  150.384
   69.750  105.463    0.334    0.654   24.441    0.000  153.526
   70.000  100.575    0.359    0.605   18.769    0.000  151.691
   70.250   93.853    0.364    0.515   13.881    0.000  147.373
   70.500   90.187    0.339    0.510   14.155    0.000  145.548
   70.750  110.450    0.311    0.600   16.168    0.000  144.346
   71.000  118.445    0.306    0.696   18.469    0.000  144.372
   71.250  101.902    0.319    0.636   16.813    0.000  144.403
   71.500  104.376    0.331    0.587   16.827    0.000  146.933
   71.750  120.345    0.328    0.588   17.820    0.000  142.605
   72.000  119.756    0.321    0.570   17.831    0.000  145.757
   72.250  120.998    0.321    0.608   18.531    0.000  147.032
   72.500  111.203    0.332    0.547   20.380    0.000  150.801
   72.750  111.223    0.283    0.565   17.530    0.000  143.989
   73.000  111.857    0.191    0.583   13.464    0.000  152.740
   73.250   92.861    0.244    0.648   20.038    0.000  151.527
   73.500   75.091    0.334    0.650   30.387    0.000  158.411
   73.750  102.715    0.334    0.571   25.656    0.000  159.692
   74.000   99.055    0.309    0.527   25.193    0.000  150.387
   74.250  113.184    0.312    0.527   23.816    0.000  146.691
   74.500  119.961    0.330    0.491   22.518    0.000  147.355
   74.750  123.662    0.353    0.581   13.787    0.000  145.520
   75.000  124.295    0.363    0.591   11.860    0.000  142.451
   75.250  120.635    0.348    0.488   11.870    0.000  144.971
   75.500  125.557    0.330    0.463   12.335    0.000  146.246
   75.750  124.350    0.317    0.558   13.825    0.000  144.411
   76.000  111.488    0.307    0.607   16.092    0.000  146.936
   76.250   97.394    0.279    0.648   18.036    0.000  153.193
   76.500   89.445    0.228    0.525   18.045    0.000  153.856
   76.750   95.599    0.233    0.504   18.752    0.000  151.394
   77.000  106.047    0.253    0.574   26.870    0.000  145.220
   77.250  117.722    0.277    0.697   24.006    0.000  145.252
   77.500  122.036    0.282    0.684   20.268    0.000  151.509
   77.750  135.552    0.292    0.589   18.805    0.000  146.558
   78.000  139.252    0.308    0.572   19.542    0.000  147.217
   78.250  127.622    0.290    0.533   23.176    0.000  150.364
   78.500  132.544    0.251    0.577   24.549    0.000  136.709
   78.750  122.750    0.266    0.562   22.776    0.000  142.966
   79.000  119.702    0.276    0.561   22.365    0.000  142.391
   79.250  120.336    0.275    0.575   21.550    0.000  139.934
   79.500  125.263    0.280    0.546   20.768    0.000  139.960
   79.750  125.902    0.287    0.583   21.990    0.000  142.490
   80.000  120.396    0.292    0.619   25.116    0.000  137.545
   80.250  113.668    0.293    0.605   23.307    0.000  150.023
   80.500  107.554    0.282    0.606   23.322    0.000  175.564
   80.750  113.095    0.290    0.575   24.695    0.000  211.057
   81.000   99.619    0.290    0.477   23.795    0.000  247.173
   81.250  107.005    0.265    0.387   25.680    0.000  248.454
   81.500   95.979    0.262    0.423   24.281    0.000  252.223
   81.750   88.024    0.293    0.464   33.501    0.000  165.160
   82.000   99.086    0.321    0.488   35.484    0.000  124.146
   82.250  105.858    0.311    0.593   32.923    0.000  129.148
   82.500   99.739    0.311    0.620   30.546    0.000  140.382
   82.750   91.176    0.319    0.535   27.806    0.000  162.190
   83.000   96.712    0.275    0.514   30.582    0.000  177.156
   83.250   96.119    0.316    0.530   28.374    0.000  167.862
   83.500   86.937    0.339    0.540   27.340    0.000  180.962
   83.750   75.916    0.309    0.514   31.823    0.000  178.515
   84.000  100.478    0.270    0.514   31.258    0.000  152.415
   84.250   99.271    0.288    0.555   29.545    0.000  177.955
   84.500  105.430    0.304    0.592   27.935    0.000  175.504
   84.750   96.857    0.299    0.599   25.919    0.000  174.918
   85.000   95.042    0.296    0.425   25.936    0.000  169.351
   85.250   96.284    0.179    0.358   30.769    0.000  123.971
   85.500   88.329    0.196    0.474   51.283    0.000  122.764
   85.750   99.391    0.302    0.535   35.838    0.000  132.131
   86.000  103.091    0.306    0.554   29.136    0.000  132.168
   86.250  107.405    0.310    0.579   24.591    0.000  128.466
   86.500  114.786    0.345    0.593   18.187    0.000  128.513
   86.750  113.579    0.343    0.610   20.773    0.000  124.185
   87.000   80.479    0.232    0.495   27.598    0.000  120.484
   87.250   86.629    0.153    0.270   33.997    0.000  127.363
   87.500   71.926    0.100    0.201   43.492    0.000  131.754
   87.750   69.493    0.056    0.369   79.672    0.000  126.192
   88.000   73.198    0.054    0.489  105.868    0.000  123.735
   88.250   83.641    0.187    0.524   91.060    0.000  120.666
   88.500   99.610    0.282    0.506   51.692    0.000  129.406
   88.750   95.336    0.299    0.470   41.231    0.000  128.198
   89.000   87.995    0.277    0.452   33.515    0.000  135.700
   89.250   95.376    0.272    0.503   35.505    0.000  135.736
   89.500  113.804    0.298    0.575   34.864    0.000  135.145
   89.750  107.076    0.328    0.606   32.342    0.000  133.948
   90.000   89.915    0.325    0.632   31.752    0.000  132.108
   90.250   77.667    0.297    0.483   31.773    0.000  130.273
   90.500   89.955    0.259    0.416   31.199    0.000  129.070
   90.750   84.455    0.208    0.341   31.220    0.000  129.734
   91.000   86.928    0.167    0.289   31.240    0.000  130.999
   91.250   80.814    0.108    0.154   33.084    0.000  133.524
   91.500   79.607    0.044    0.200  147.330    0.000  132.316
   91.750   70.426    0.050    0.249  174.758    0.000  131.108
   92.000   71.673    0.182    0.565  109.034    0.000  132.384
   92.250   90.714    0.275    0.604   52.215    0.000  132.420
   92.500  106.069    0.316    0.617   24.074    0.000  132.456
   92.750  123.265    0.296    0.591   21.105    0.000  128.766
   93.000  129.419    0.282    0.561   20.724    0.000  128.175
   93.250  122.078    0.300    0.576   18.168    0.000  131.316
   93.500  119.031    0.303    0.638   18.530    0.000  130.109
   93.750  123.345    0.298    0.689   18.896    0.000  131.389
   94.000  122.138    0.298    0.713   17.538    0.000  125.827
   94.250  128.292    0.291    0.594   16.579    0.000  120.882
   94.500  124.018    0.281    0.561   15.673    0.000  128.388
   94.750  113.610    0.265    0.554   15.983    0.000  134.018
   95.000  106.888    0.275    0.553   18.604    0.000  139.653
   95.250  111.196    0.286    0.557   21.252    0.000  129.109
   95.500  116.129    0.278    0.562   20.477    0.000  127.285
