~VERSION INFORMATION
 VERS.                 2.0:   CWLS LOG ASCII STANDARD -VERSION 2.0
 WRAP.                  NO:   ONE LINE PER DEPTH STEP
~WELL INFORMATION BLOCK
#MNEM.UNIT           DATA                    DESCRIPTION OF MNEMONIC
#---------    -------------------            -------------------------------
# Generated from Intellog Unique Number	utf_inj/WELL/619
WELL.         AO-36                          : Well_name    - WELL              
LOC .         AC/15-07-093-12W4/0            : Location     - LOCATION          
UWI .         AC/15-07-093-12W400            : Uwi          - UNIQUE WELL ID    
ENTR.         JHS                            : Entered      - ENTERED BY        
SRVC.         SCHLUMBERGER                   : Scn          - SERVICE COMPANY   
STRT.M        2                              : top_depth    - START DEPTH       
STOP.M        166                            : bot_depth    - STOP DEPTH        
STEP.M        0.25                           : increment    - STEP LENGTH       
NULL.         -999.250                       : null         - NULL VALUE       
~CURVE INFORMATION BLOCK
#MNEM UNIT       ERCB CURVE CODE    CURVE DESCRIPTION
#-----------   ------------------   ----------------------------------
DEPT.M        00 001 00 00         : DEPTH        - DEPTH                       
GR  .API      00 310 00 00         : GR           - GAMMA RAY                   
DPHI.V/V      00 890 00 00         : PHID         - DENSITY POROSITY (SANDSTONE)
NPHI.V/V      00 330 00 00         : PHIN         - NEUTRON POROSITY (SANDSTONE)
ILD .OHMM     00 120 00 00         : RESD         - DEEP RESISTIVITY (DIL)      
SP  .MV       00 010 00 00         : SP           - SPONTANEOUS POTENTIAL       
CALI.MM       00 280 01 00         : CAL          - CALIPER                     
~PARAMETER INFORMATION       
#MNEM.UNIT           DATA             DESCRIPTION OF MNEMONIC
#---------         -----------     ------------------------------
GL  .M        432.8                : gl           - GROUND LEVEL ELEVATION      
EREF.M        432.8                : kb           - ELEVATION OF DEPTH REFERENCE
DATM.M        432.8                : datum        - DATUM ELEVATION             
TDD .M        169                  : tdd          - TOTAL DEPTH DRILLER         
RUN .         ONE                  : Run          - RUN NUMBER                  
ENG .         BILL                 : Engineer     - RECORDING ENGINEER          
WIT .         JIM                  : Witness      - WITNESSED BY                
MUD .         GEL                  : Mud_type     - MUD TYPE                    
MATR.         SANDSTONE            : Logunit      - NEUTRON MATRIX              
TMAX.C        6.5                  : BHT          - MAXIMUM RECORDED TEMPERATURE
BHTD.M        151.49               : BHTDEP       - MAXIMUM RECORDED TEMPERATURE
MATR.         1                    : LOGUNIT      - NEUTRON MATRIX              
RMT .C        25                   : MDTP         - TEMPERATURE OF MUD          
NEUT.         1                    : NEUTRON      - NEUTRON TYPE                
RESI.         0                    : RESIST       - RESISTIVITY TYPE            
RMC .OHMM     0.25                 : RMC          - RESISTIVITY OF MUD CAKE     
RMF .OHMM     0.25                 : RMF          - RESISTIVITY OF MUD FILTRATE 
SUFT.C        15                   : SUFT         - SURFACE TEMPERATURE         
~A  DEPTH       GR     PHID     PHIN     RESD       SP      CAL
# ...
  127.000   75.599    0.409    0.437   15.378   75.074    0.000
  127.250   79.241    0.378    0.455   14.587  101.187    0.000
  127.500   81.667    0.343    0.491   13.828  109.341    0.000
  127.750  107.258    0.313    0.504   15.632   95.455    0.000
  128.000  104.804    0.300    0.511   16.259  102.795    0.000
  128.250   93.816    0.303    0.516   16.911  102.784    0.000
  128.500   94.410    0.321    0.489   16.953  100.328    0.000
  128.750   98.052    0.311    0.498   16.532   97.056    0.000
  129.000   90.110    0.321    0.478   16.426   97.049    0.000
  129.250   92.534    0.385    0.462   17.243   95.407    0.000
  129.500   93.736    0.414    0.439   17.441   91.318    0.000
  129.750   92.503    0.396    0.481   17.815  106.003    0.000
  130.000  106.510    0.357    0.582   18.191  112.524    0.000
  130.250   97.960    0.331    0.517   18.399  113.331    0.000
  130.500   88.188    0.315    0.486   18.445  109.243    0.000
  130.750  102.195    0.311    0.493   17.822  112.499    0.000
  131.000   97.912    0.311    0.522   17.067  113.308    0.000
  131.250  108.872    0.306    0.506   17.428  111.666    0.000
  131.500  105.808    0.305    0.481   17.141  103.496    0.000
  131.750   91.160    0.306    0.442   17.671  105.934    0.000
  132.000   98.460    0.300    0.494   17.884  108.377    0.000
  132.250  106.371    0.295    0.512   17.429  110.002    0.000
  132.500   99.035    0.298    0.496   18.308  107.544    0.000
  132.750   94.757    0.305    0.497   19.212  105.903    0.000
  133.000  101.446    0.303    0.556   18.741  105.894    0.000
  133.250   97.165    0.300    0.537   18.444  100.989    0.000
  133.500   94.101    0.298    0.519   17.810  105.058    0.000
  133.750  108.108    0.300    0.525   17.051  105.870    0.000
  134.000  103.823    0.300    0.545   15.878  109.944    0.000
  134.250  112.954    0.293    0.607   15.062  110.751    0.000
  134.500  118.427    0.285    0.568   16.405  103.397    0.000
  134.750   99.511    0.269    0.494   17.380   71.553    0.000
  135.000   69.620    0.270    0.450   34.158   37.261    0.000
  135.250   43.387    0.316    0.403   49.079   80.516    0.000
  135.500   70.198    0.344    0.427   22.462   90.302    0.000
  135.750   83.596    0.357    0.471   20.348   88.660    0.000
  136.000   84.191    0.385    0.499   21.558   73.961    0.000
  136.250   68.934    0.370    0.476   28.765   52.728    0.000
  136.500   56.114    0.359    0.443  132.076   79.659    0.000
  136.750   60.367    0.349    0.424   42.189   88.629    0.000
  137.000   90.226    0.350    0.471   23.223   78.009    0.000
  137.250   74.359    0.339    0.434  157.115   42.084    0.000
  137.500   48.737    0.324    0.375  194.682   37.178    0.000
  137.750   52.988    0.329    0.380   50.296   70.637    0.000
  138.000   73.092    0.363    0.419   57.912   81.242    0.000
  138.250   75.516    0.347    0.412   22.656   95.927    0.000
  138.500   89.524    0.352    0.409   22.929   77.960    0.000
  138.750   76.704    0.367    0.471   24.070   94.277    0.000
  139.000   71.811    0.349    0.507   33.942   72.230    0.000
  139.250   80.333    0.363    0.474   25.564   93.445    0.000
  139.500   93.119    0.388    0.504   20.919   46.091    0.000
  139.750   82.740    0.393    0.525   34.831   45.267    0.000
  140.000   75.407    0.373    0.484   39.373   48.523    0.000
  140.250   96.123    0.347    0.458   22.274   64.025    0.000
  140.500  113.788    0.316    0.482   14.477   95.852    0.000
  140.750  116.822    0.305    0.497   13.602  105.639    0.000
  141.000  104.611    0.329    0.486   16.400  103.998    0.000
  141.250  114.351    0.355    0.579   18.878   91.745    0.000
  141.500  106.410    0.368    0.502   31.143   73.779    0.000
  141.750   72.250    0.357    0.469   35.204   84.383    0.000
  142.000   86.870    0.345    0.468   18.500   91.721    0.000
  142.250   99.047    0.331    0.460   19.788   68.040    0.000
  142.500   92.325    0.321    0.424   22.995   72.114    0.000
  142.750   75.848    0.304    0.443   19.698   97.410    0.000
  143.000   94.124    0.301    0.502   22.062   94.953    0.000
  143.250   92.278    0.345    0.513   29.985   86.781    0.000
  143.500   80.676    0.345    0.504   35.156   81.875    0.000
  143.750   75.175    0.337    0.481   44.386   72.072    0.000
  144.000   73.333    0.360    0.479  127.353   55.738    0.000
  144.250   61.733    0.381    0.438  188.110   46.751    0.000
  144.500   49.524    0.353    0.414  124.498   55.720    0.000
  144.750   61.091    0.340    0.386   61.907   63.876    0.000
  145.000   61.684    0.337    0.445   47.934   69.582    0.000
  145.250   67.159    0.355    0.451   58.329   54.881    0.000
  145.500   62.265    0.348    0.433  206.861   39.362    0.000
  145.750   67.736    0.360    0.427  244.859   28.742    0.000
  146.000   63.452    0.383    0.410  236.585   25.469    0.000
  146.250   56.730    0.370    0.378  163.962   24.643    0.000
  146.500   61.593    0.368    0.358  139.251   32.799    0.000
  146.750   57.919    0.386    0.388  119.322   28.709    0.000
  147.000   46.321    0.406    0.406  245.642   34.416    0.000
  147.250   61.548    0.376    0.396  280.243   26.244    0.000
  147.500   61.532    0.358    0.407  100.877   19.704    0.000
  147.750   70.052    0.355    0.427   57.613   31.125    0.000
  148.000  109.666    0.383    0.477   41.823   59.688    0.000
  148.250   79.166    0.378    0.487   87.701   70.290    0.000
  148.500   70.613    0.366    0.463  127.137   62.936    0.000
  148.750   63.284    0.361    0.440  128.632   57.214    0.000
  149.000   67.537    0.365    0.428  226.348   29.451    0.000
  149.250   66.910    0.370    0.469  201.297   26.178    0.000
  149.500   63.237    0.361    0.453  219.244   35.149    0.000
  149.750   58.953    0.358    0.430  221.823   31.059    0.000
  150.000   49.794    0.360    0.414  321.567   17.174    0.000
  150.250   57.703    0.348    0.387   73.024   31.859    0.000
  150.500   58.298    0.356    0.446  105.860   58.789    0.000
  150.750   48.527    0.373    0.451  191.497   46.535    0.000
  151.000   34.489    0.391    0.414  346.411   25.304    0.000
  151.250   50.936    0.392    0.394   75.124   27.745    0.000
  151.500   63.724    0.363    0.384   39.129   58.756    0.000
  151.750  123.458    0.307    0.463   20.753   76.704    0.000
  152.000  100.885    0.317    0.521   10.225   80.779    0.000
  152.250   84.405    0.358    0.613   17.182   71.792    0.000
  152.500   78.904    0.379    0.562   39.145   61.170    0.000
  152.750   97.180    0.345    0.497   68.249   53.001    0.000
  153.000  121.552    0.309    0.462   31.525   82.379    0.000
  153.250  131.291    0.291    0.479   14.035   85.636    0.000
  153.500  129.447    0.285    0.627   12.258   79.097    0.000
  153.750  115.409    0.301    0.629   13.848   72.558    0.000
  154.000   87.348    0.333    0.554   23.922   47.244    0.000
  154.250   89.162    0.307    0.477   15.837   75.807    0.000
  154.500  108.656    0.314    0.559   22.539   65.188    0.000
  154.750  100.712    0.343    0.536   24.776   64.362    0.000
  155.000   97.650    0.374    0.511   23.502   79.864    0.000
  155.250   91.536    0.345    0.528   53.052   87.201    0.000
  155.500   65.306    0.332    0.467  128.916   39.849    0.000
  155.750   51.268    0.364    0.405  401.870   11.270    0.000
  156.000   55.517    0.410    0.374  374.359    0.000    0.000
  156.250   61.601    0.377    0.373  309.079    0.000    0.000
  156.500   53.660    0.360    0.418  257.624    8.797    0.000
  156.750   47.548    0.363    0.444  440.970    0.000    0.000
  157.000   44.484    0.386    0.417  276.239    0.000    0.000
  157.250   54.224    0.366    0.392  365.206    0.000    0.000
  157.500   49.939    0.374    0.387  436.154    0.000    0.000
  157.750   45.047    0.399    0.402  484.174    0.000    0.000
  158.000   57.225    0.407    0.389  361.105    0.000    0.000
